[{"title":"창동종로약국","address":"(01405) 서울 도봉구 노해로63길 84-3 창동종로약국","tel":"02-992-2376","time":"08:00 ~ 21:30","lng":"127.04657828265","lat":"37.6527642013214"},{"title":"종로프라자약국","address":"(01405) 서울 도봉구 노해로65길 14-3 종로프라자약국","tel":"02-907-4266","time":"08:30 ~ 22:00","lng":"127.046523773308","lat":"37.6520344268197"},{"title":"도봉태평양약국","address":"(01307) 서울 도봉구 도봉로 821 도봉태평양약국","tel":"02-955-6228","time":"09:00 ~ 20:00","lng":"127.044761237034","lat":"37.6777687427787"},{"title":"녹십자약국","address":"(01482) 서울 도봉구 우이천로4길 32 1층","tel":"02-992-9266","time":"09:00 ~ 21:00","lng":"127.04121466968","lat":"37.6338558915656"},{"title":"창동남대문약국","address":"(01471) 서울특별시 도봉구 덕릉로 223 ","tel":"02-995-6005","time":"09:00 ~ 21:30","lng":"127.037330665726","lat":"37.6381409188252"},{"title":"창동이화약국","address":"(01405) 서울 도봉구 노해로 341 305호","tel":"02-906-0101","time":"09:00 ~ 18:30","lng":"127.045912956978","lat":"37.6514452431588"},{"title":"광장온누리약국","address":"(01415) 서울 도봉구 노해로 389 제일빌딩 101호","tel":"02-990-6528","time":"09:00 ~ 21:00","lng":"127.051335609074","lat":"37.6527681735064"},{"title":"후문한일약국","address":"(01449) 서울 도봉구 노해로40길 72 한양상가","tel":"02-999-9101","time":"09:00 ~ 18:00","lng":"127.030083812739","lat":"37.646742794246"},{"title":"신원약국","address":"(01405) 서울 도봉구 노해로63길 78 4층 신원약국","tel":"02-992-1038","time":"09:00 ~ 18:30","lng":"127.046332152249","lat":"37.652585903674"},{"title":"즐거운약국","address":"(01399) 서울 도봉구 노해로63길 79 111호","tel":"02-990-3083","time":"09:00 ~ 20:30","lng":"127.046291895459","lat":"37.6530884876081"},{"title":"초롱약국","address":"(01405) 서울 도봉구 노해로65길 17 108호","tel":"02-902-7070","time":"09:00 ~ 19:30","lng":"127.046095779851","lat":"37.6520591916627"},{"title":"가야온누리약국","address":"(01405) 서울 도봉구 노해로65길 17-9 창동삼원프라자","tel":"02-997-4540","time":"08:00 ~ 18:00","lng":"127.045750769497","lat":"37.6519534604914"},{"title":"더튼튼약국","address":"(01405) 서울 도봉구 노해로65길 18 101호","tel":"02-999-0105","time":"09:00 ~ 20:00","lng":"127.046473323775","lat":"37.652180586111"},{"title":"청솔동아약국","address":"(01411) 서울 도봉구 노해로69길 97 동아청솔상가 1층 107호","tel":"02-990-3378","time":"09:30 ~ 18:00","lng":"127.049334440854","lat":"37.6568264212057"},{"title":"정대식약국","address":"(01417) 서울 도봉구 노해로70길 54 주공19단지아파트 상가 122호","tel":"02-991-0400","time":"09:00 ~ 19:00","lng":"127.051532724973","lat":"37.6490700030877"},{"title":"늘편한약국","address":"(01477) 서울 도봉구 덕릉로 218-1 1층 늘편한약국","tel":"02-956-0381","time":"09:00 ~ 21:00","lng":"127.037156498664","lat":"37.6374041482732"},{"title":"영훈약국","address":"(01473) 서울 도봉구 덕릉로 222 영훈약국","tel":"02-900-3943","time":"09:00 ~ 21:00","lng":"127.037625298928","lat":"37.6378039469551"},{"title":"새순보당약국","address":"(01471) 서울 도봉구 덕릉로 233-5 1층 새순보당약국","tel":"02-991-3413","time":"09:00 ~ 19:00","lng":"127.037873803493","lat":"37.6387789133208"},{"title":"민중 약국","address":"(01471) 서울 도봉구 덕릉로 235 민중 약국","tel":"02-903-3891","time":"08:00 ~ 21:00","lng":"127.038109547969","lat":"37.6389379513295"},{"title":"뉴지명약국","address":"(01473) 서울 도봉구 덕릉로 236 1층 뉴지명약국","tel":"02-993-2082","time":"09:00 ~ 20:00","lng":"127.038510983653","lat":"37.6387460013087"},{"title":"창동종로약국","address":"(01405) 서울 도봉구 노해로63길 84-3 창동종로약국","tel":"02-992-2376","time":"08:00 ~ 21:30","lng":"127.04657828265","lat":"37.6527642013214"},{"title":"종로프라자약국","address":"(01405) 서울 도봉구 노해로65길 14-3 종로프라자약국","tel":"02-907-4266","time":"08:30 ~ 22:00","lng":"127.046523773308","lat":"37.6520344268197"},{"title":"도봉태평양약국","address":"(01307) 서울 도봉구 도봉로 821 도봉태평양약국","tel":"02-955-6228","time":"09:00 ~ 20:00","lng":"127.044761237034","lat":"37.6777687427787"},{"title":"녹십자약국","address":"(01482) 서울 도봉구 우이천로4길 32 1층","tel":"02-992-9266","time":"09:00 ~ 21:00","lng":"127.04121466968","lat":"37.6338558915656"},{"title":"창동남대문약국","address":"(01471) 서울특별시 도봉구 덕릉로 223 ","tel":"02-995-6005","time":"09:00 ~ 21:30","lng":"127.037330665726","lat":"37.6381409188252"},{"title":"창동이화약국","address":"(01405) 서울 도봉구 노해로 341 305호","tel":"02-906-0101","time":"09:00 ~ 18:30","lng":"127.045912956978","lat":"37.6514452431588"},{"title":"광장온누리약국","address":"(01415) 서울 도봉구 노해로 389 제일빌딩 101호","tel":"02-990-6528","time":"09:00 ~ 21:00","lng":"127.051335609074","lat":"37.6527681735064"},{"title":"후문한일약국","address":"(01449) 서울 도봉구 노해로40길 72 한양상가","tel":"02-999-9101","time":"09:00 ~ 18:00","lng":"127.030083812739","lat":"37.646742794246"},{"title":"신원약국","address":"(01405) 서울 도봉구 노해로63길 78 4층 신원약국","tel":"02-992-1038","time":"09:00 ~ 18:30","lng":"127.046332152249","lat":"37.652585903674"},{"title":"즐거운약국","address":"(01399) 서울 도봉구 노해로63길 79 111호","tel":"02-990-3083","time":"09:00 ~ 20:30","lng":"127.046291895459","lat":"37.6530884876081"},{"title":"초롱약국","address":"(01405) 서울 도봉구 노해로65길 17 108호","tel":"02-902-7070","time":"09:00 ~ 19:30","lng":"127.046095779851","lat":"37.6520591916627"},{"title":"가야온누리약국","address":"(01405) 서울 도봉구 노해로65길 17-9 창동삼원프라자","tel":"02-997-4540","time":"08:00 ~ 18:00","lng":"127.045750769497","lat":"37.6519534604914"},{"title":"더튼튼약국","address":"(01405) 서울 도봉구 노해로65길 18 101호","tel":"02-999-0105","time":"09:00 ~ 20:00","lng":"127.046473323775","lat":"37.652180586111"},{"title":"청솔동아약국","address":"(01411) 서울 도봉구 노해로69길 97 동아청솔상가 1층 107호","tel":"02-990-3378","time":"09:30 ~ 18:00","lng":"127.049334440854","lat":"37.6568264212057"},{"title":"정대식약국","address":"(01417) 서울 도봉구 노해로70길 54 주공19단지아파트 상가 122호","tel":"02-991-0400","time":"09:00 ~ 19:00","lng":"127.051532724973","lat":"37.6490700030877"},{"title":"늘편한약국","address":"(01477) 서울 도봉구 덕릉로 218-1 1층 늘편한약국","tel":"02-956-0381","time":"09:00 ~ 21:00","lng":"127.037156498664","lat":"37.6374041482732"},{"title":"영훈약국","address":"(01473) 서울 도봉구 덕릉로 222 영훈약국","tel":"02-900-3943","time":"09:00 ~ 21:00","lng":"127.037625298928","lat":"37.6378039469551"},{"title":"새순보당약국","address":"(01471) 서울 도봉구 덕릉로 233-5 1층 새순보당약국","tel":"02-991-3413","time":"09:00 ~ 19:00","lng":"127.037873803493","lat":"37.6387789133208"},{"title":"민중 약국","address":"(01471) 서울 도봉구 덕릉로 235 민중 약국","tel":"02-903-3891","time":"08:00 ~ 21:00","lng":"127.038109547969","lat":"37.6389379513295"},{"title":"뉴지명약국","address":"(01473) 서울 도봉구 덕릉로 236 1층 뉴지명약국","tel":"02-993-2082","time":"09:00 ~ 20:00","lng":"127.038510983653","lat":"37.6387460013087"},{"title":"신프라자약국","address":"(01470) 서울 도봉구 덕릉로 251 1층 신프라자약국","tel":"02-900-9900","time":"09:30 ~ 20:00","lng":"127.039151077797","lat":"37.6401649316932"},{"title":"신창약국","address":"(01474) 서울 도봉구 덕릉로 258 1층","tel":"02-902-3534","time":"09:00 ~ 19:30","lng":"127.039988789748","lat":"37.640299618227"},{"title":"대우약국","address":"(01465) 서울 도봉구 덕릉로63가길 61 2층 203호","tel":"02-999-2201","time":"09:00 ~ 18:00","lng":"127.037330634079","lat":"37.6426063787029"},{"title":"건강약국","address":"(01353) 서울 도봉구 도당로 109 서울도봉구방학동659 38","tel":"02-3492-3588","time":"09:00 ~ 21:00","lng":"127.038602111789","lat":"37.666835278293"},{"title":"성가온누리약국","address":"(01351) 서울 도봉구 도당로 133 1층","tel":"02-6080-6424","time":"09:00 ~ 20:00","lng":"127.041097340025","lat":"37.6674486336944"},{"title":"방학태평양약국","address":"(01342) 서울 도봉구 도당로 80 1층 방학태평양약국","tel":"02-3491-6626","time":"09:00 ~ 20:00","lng":"127.036344945016","lat":"37.6648346469578"},{"title":"제생약국","address":"(01342) 서울 도봉구 도당로 94 도당로94","tel":"02-956-3675","time":"09:00 ~ 18:00","lng":"127.037366644592","lat":"37.665632146213"},{"title":"햇빛약국","address":"(01355) 서울 도봉구 도당로13길 16 햇빛약국","tel":"02-6081-5255","time":"09:00 ~ 19:00","lng":"127.035579342152","lat":"37.6655545838399"},{"title":"산들약국","address":"(01357) 서울 도봉구 도당로13길 17 산들약국","tel":"070-4300-3308","time":"09:00 ~ 20:00","lng":"127.035228511659","lat":"37.6654653118506"},{"title":"상록수온누리약국","address":"(01355) 서울 도봉구 도당로13길 8 상록수온누리약국","tel":"02-954-2950","time":"08:30 ~ 19:00","lng":"127.035743923351","lat":"37.6653412719347"},{"title":"청춘약국","address":"(01320) 서울 도봉구 도봉동 62-40 청춘약국","tel":"02-954-7131","time":"09:00 ~ 18:00","lng":"127.047793158797","lat":"37.6822248739652"},{"title":"중앙약국","address":"(01459) 서울 도봉구 도봉로 452 1층","tel":"02-908-3579","time":"09:00 ~ 18:30","lng":"127.033473997602","lat":"37.6460101020753"},{"title":"백운약국","address":"(01455) 서울 도봉구 도봉로 468 백운약국","tel":"02-906-0280","time":"08:30 ~ 22:00","lng":"127.034372618396","lat":"37.6473861862855"},{"title":"무지개온누리약국","address":"(01447) 서울 도봉구 도봉로 471 무지개온누리약국","tel":"02-991-8427","time":"09:00 ~ 19:00","lng":"127.03387685596","lat":"37.6478425877321"},{"title":"은약국","address":"(01443) 서울 도봉구 도봉로 473 은약국","tel":"02-992-4321","time":"08:30 ~ 21:00","lng":"127.033995113936","lat":"37.6480007664082"},{"title":"쌍문약국","address":"(01443) 서울 도봉구 도봉로 473-1 쌍문약국","tel":"02-908-5945","time":"08:30 ~ 22:00","lng":"127.033995113936","lat":"37.6480007664082"},{"title":"삼성늘푸른약국","address":"(01454) 서울 도봉구 도봉로 476 206호 삼성쉐르빌","tel":"010-5368-4361","time":"08:00 ~ 19:00","lng":"127.034762529441","lat":"37.647876747648"},{"title":"태양약국","address":"(01443) 서울 도봉구 도봉로 479 태양약국","tel":"02-902-0682","time":"08:30 ~ 22:00","lng":"127.034350535499","lat":"37.6486447764794"},{"title":"메디칼2층약국","address":"(01454) 서울 도봉구 도봉로 484 청우빌딩 202호","tel":"02-992-2313","time":"09:30 ~ 19:30","lng":"127.035069277803","lat":"37.648618526592"},{"title":"메디팜건강약국","address":"(01443) 서울 도봉구 도봉로 487 쌍문3동88-105","tel":"02-906-1800","time":"08:30 ~ 20:00","lng":"127.034651389087","lat":"37.6491395986223"},{"title":"메디팜큰사랑약국","address":"(01454) 서울 도봉구 도봉로 488 1층 (창동.대명빌딩)","tel":"02-907-7582","time":"09:00 ~ 21:00","lng":"127.035265943337","lat":"37.6489950789907"},{"title":"참좋은약국","address":"(01453) 서울 도봉구 도봉로 496 102호","tel":"02-900-2055","time":"09:00 ~ 19:00","lng":"127.035734728678","lat":"37.6497057235918"},{"title":"아름다운약국","address":"(01436) 서울 도봉구 도봉로 551 1층 아름다운약국","tel":"02-900-5812","time":"08:30 ~ 19:00","lng":"127.037758938487","lat":"37.6544885008684"},{"title":"우리약국","address":"(01436) 서울 도봉구 도봉로 551-10 104호","tel":"02-994-4086","time":"08:00 ~ 17:30","lng":"127.037465839945","lat":"37.6546265347296"},{"title":"일충프라자약국","address":"(01432) 서울 도봉구 도봉로 575 삼환프라자빌딩 103호","tel":"02-902-9696","time":"09:00 ~ 18:30","lng":"127.038790046328","lat":"37.6564054566286"},{"title":"약손약국","address":"(01395) 서울 도봉구 도봉로 601 시그마팰리스 약손약국","tel":"02-908-0266","time":"09:00 ~ 18:30","lng":"127.040092682995","lat":"37.6584191663127"},{"title":"웰빙약국","address":"(01401) 서울 도봉구 도봉로 604 에이치큐브병원 내 1층","tel":"02-908-1255","time":"09:00 ~ 19:00","lng":"127.041034393222","lat":"37.6583143285943"},{"title":"손온누리약국","address":"(01397) 서울 도봉구 도봉로 626 도봉구 도봉로626","tel":"02-904-3644","time":"08:30 ~ 19:00","lng":"127.041927238905","lat":"37.6601944535247"},{"title":"메디칼약국","address":"(01340) 서울 도봉구 도봉로 677 105호","tel":"02-3491-5119","time":"08:00 ~ 20:00","lng":"127.042318316334","lat":"37.6649297808959"},{"title":"진성온누리약국","address":"(01340) 서울 도봉구 도봉로 681 도봉로681","tel":"02-993-5535","time":"09:00 ~ 20:00","lng":"127.042536029765","lat":"37.6653068531475"},{"title":"고명약국","address":"(01333) 서울 도봉구 도봉로 724 고명약국","tel":"02-3493-0343","time":"09:30 ~ 20:00","lng":"127.043831195743","lat":"37.6690205809055"},{"title":"늘기쁜약국","address":"(01333) 서울 도봉구 도봉로 726 1층 늘기쁜약국","tel":"02-955-9988","time":"09:00 ~ 20:00","lng":"127.043846122302","lat":"37.6691536501308"},{"title":"방학약국","address":"(01350) 서울 도봉구 도봉로 729 방학약국","tel":"02-955-8822","time":"09:00 ~ 21:00","lng":"127.043302922287","lat":"37.6696580392898"},{"title":"정민약국","address":"(01304) 서울 도봉구 도봉로 887 정민약국","tel":"02-956-7328","time":"09:00 ~ 18:00","lng":"127.045652721176","lat":"37.6837369324256"},{"title":"후문약국","address":"(01444) 서울 도봉구 도봉로109길 58 후문약국 곽경순","tel":"02-995-8588","time":"09:00 ~ 19:00","lng":"127.030236734193","lat":"37.6471800024959"},{"title":"신신 약국02","address":"(01443) 서울 도봉구 도봉로113길 16 신신약국","tel":"02-9907-6555","time":"09:00 ~ 19:00","lng":"127.033276949967","lat":"37.6482948719595"},{"title":"송이약국","address":"(01447) 서울 도봉구 도봉로113길 41 쌍문 동98-54","tel":"02-906-6363","time":"09:00 ~ 20:30","lng":"127.031873587614","lat":"37.648371302462"},{"title":"은혜약국","address":"(01453) 서울 도봉구 도봉로118길 11 창1동","tel":"02-992-9191","time":"09:30 ~ 23:00","lng":"127.035897595304","lat":"37.6490642641892"},{"title":"자모약국","address":"(01395) 서울 도봉구 도봉로133길 14 서울시 쌍문2동 574-101","tel":"02-992-6516","time":"08:30 ~ 18:30","lng":"127.038883466104","lat":"37.6575664313433"},{"title":"쌍문마이팜약국","address":"(01391) 서울 도봉구 도봉로141길 11 한빛빌딩 1층","tel":"02-990-3040","time":"08:00 ~ 19:30","lng":"127.041408313912","lat":"37.6614601553805"},{"title":"혜민약국","address":"(01309) 서울 도봉구 도봉로159길 17 도봉1동 603-7","tel":"02-954-1653","time":"11:00 ~ 21:30","lng":"127.043266757355","lat":"37.6743308037873"},{"title":"푸른약국","address":"(01319) 서울 도봉구 도봉로180나길 34 푸른약국","tel":"02-956-3388","time":"09:00 ~ 18:30","lng":"127.049566885158","lat":"37.6837686884789"},{"title":"도봉월드약국","address":"(01331) 서울 도봉구 마들로 650 3층 316호(방학동, 도봉월드상가)","tel":"02-3491-3158","time":"09:00 ~ 18:30","lng":"127.047064658894","lat":"37.6680283468222"},{"title":"월드중앙약국","address":"(01331) 서울 도봉구 마들로 650 104-2호","tel":"02-956-2885","time":"09:00 ~ 19:00","lat":0},{"title":"오약국","address":"(01332) 서울 도봉구 마들로 657 112호 오약국","tel":"02-955-0788","time":"09:00 ~ 20:00","lng":"127.045337365161","lat":"37.6683298607216"},{"title":"유경약국","address":"(01330) 서울 도봉구 마들로 684 안세빌딩1층 유경약국","tel":"02-986-0533","time":"09:00 ~ 19:00","lng":"127.046683445527","lat":"37.6710450698082"},{"title":"서진약국","address":"(01325) 서울 도봉구 마들로 686 세림빌딩내 서진약국","tel":"02-3493-1315","time":"08:30 ~ 21:00","lng":"127.04670145023","lat":"37.6713785153228"},{"title":"소망약국","address":"(01328) 서울 도봉구 마들로 691 1층 소망약국","tel":"02-954-7291","time":"09:00 ~ 18:00","lng":"127.046342295797","lat":"37.6718220291379"},{"title":"하나약국","address":"(01328) 서울 도봉구 마들로 697 하나약국","tel":"02-954-1504","time":"09:00 ~ 20:00","lng":"127.046366298158","lat":"37.6725060434963"},{"title":"희정약국","address":"(01318) 서울 도봉구 마들로 859-19 한신아파트 근린상가 109호","tel":"02-956-3300","time":"09:00 ~ 19:30","lng":"127.046764720981","lat":"37.6860418285068"},{"title":"우리들약국","address":"(01340) 서울 도봉구 방학동 682-10 1층 우리들약국","tel":"02-956-8208","time":"08:00 ~ 19:30","lng":"127.041029480072","lat":"37.6650370925714"},{"title":"방학세계로약국","address":"(01384) 서울 도봉구 방학로 159 방학세계로약국","tel":"02-956-3030","time":"09:00 ~ 20:30","lng":"127.034447487498","lat":"37.6622836380009"},{"title":"초록약국","address":"(01384) 서울 도봉구 방학로 163 1층 초록약국","tel":"02-956-8361","time":"09:00 ~ 19:00","lng":"127.033970756049","lat":"37.6621893534225"},{"title":"메디약국","address":"(01384) 서울 도봉구 방학로 183 메디약국","tel":"02-956-2339","time":"09:00 ~ 18:30","lng":"127.032332990019","lat":"37.6617613971042"},{"title":"나진약국","address":"(01362) 서울 도봉구 방학로 223 101호","tel":"02-3491-9158","time":"09:00 ~ 18:30","lng":"127.027500354604","lat":"37.6613189795285"},{"title":"엔젤팜약국","address":"(01395) 서울 도봉구 방학로3길 121 1층","tel":"02-997-8213","time":"09:00 ~ 18:30","lng":"127.038518986713","lat":"37.6579742452458"},{"title":"새보은약국","address":"(01367) 서울 도봉구 삼양로154길 42 새보은약국","tel":"02-996-7360","time":"09:00 ~ 19:00","lng":"127.015624947396","lat":"37.6556447843763"},{"title":"영락온누리약국","address":"(01349) 서울 도봉구 시루봉로 290 1층 영락온누리약국","tel":"02-3493-6350","time":"09:00 ~ 20:00","lng":"127.041091414413","lat":"37.6710913886587"},{"title":"태양당약국","address":"(01314) 서울 도봉구 시루봉로15길 36 태양당약국","tel":"02-3493-0664","time":"09:00 ~ 19:00","lng":"127.032090721493","lat":"37.668700817425"},{"title":"온누리수약국","address":"(01394) 서울 도봉구 쌍문동 723 314호","tel":"02-999-5450","time":"08:30 ~ 19:00","lng":"127.035750750525","lat":"37.6583073087137"},{"title":"정문약국","address":"(01452) 서울 도봉구 우이천로 302 정문약국","tel":"02-998-6342","time":"08:30 ~ 18:30","lng":"127.029053005049","lat":"37.6446785383204"},{"title":"명산약국","address":"(01416) 서울 도봉구 창동 26 동아상가 2층 203-1호 명산약국","tel":"02-908-8122","time":"09:00 ~ 19:00","lng":"127.050332274529","lat":"37.6512697309111"},{"title":"부광약국","address":"(01489) 서울 도봉구 창동 38 17단지 상가120호","tel":"02-902-3654","time":"09:00 ~ 20:00","lat":0},{"title":"유림당약국","address":"(01427) 서울 도봉구 해등로 109 상가104호","tel":"02-997-0997","time":"09:00 ~ 21:00","lng":"127.040815773778","lat":"37.653332513334"},{"title":"참약국","address":"(01394) 서울 도봉구 해등로 190 2층 217호","tel":"02-990-8677","time":"09:00 ~ 18:00","lng":"127.035759433408","lat":"37.6582166673064"},{"title":"뉴메디슨약국","address":"(01429) 서울 도봉구 해등로 255 신원에벤에셀 1차 상가 207호","tel":"02-991-5365","time":"08:30 ~ 20:00","lng":"127.028191786525","lat":"37.6573748589473"},{"title":"메디슨약국","address":"(01429) 서울 도봉구 해등로 255 에벤에셀아파트 상가동 102호","tel":"070-4256-9231","time":"09:00 ~ 19:00","lng":"127.028191786525","lat":"37.6573748589473"},{"title":"쌍문상록수약국","address":"(01387) 서울 도봉구 해등로26길 7 쌍문상록수약국","tel":"02-990-0600","time":"09:00 ~ 21:00","lng":"127.03260591856","lat":"37.6584359791246"},{"title":"용호약국","address":"(01379) 서울특별시 도봉구 노해로41길 42 ","tel":"02-991-7134","time":"09:00 ~ 20:00","lng":"127.025207791512","lat":"37.650123075089"},{"title":"보화당약국","address":"(01414) 서울특별시 도봉구 노해로69길 15세정빌딩 내 1층 보화당약국","tel":"02-995-2929","time":"09:00 ~ 23:00","lng":"127.050643136271","lat":"37.6529808344235"},{"title":"이화태평양약국","address":"(01470) 서울특별시 도봉구 덕릉로 239 ","tel":"02-991-8447","time":"09:00 ~ 20:00","lng":"127.038240549644","lat":"37.6392117182212"},{"title":"중앙온누리약국","address":"(01470) 서울특별시 도봉구 덕릉로 241 ","tel":"02-903-3005","time":"09:00 ~ 19:30","lng":"127.038496699287","lat":"37.6393880477357"},{"title":"백세약국","address":"(01354) 서울특별시 도봉구 도당로15길 12 ","tel":"02-3492-9373","time":"09:00 ~ 20:30","lng":"127.036782159348","lat":"37.6661146248899"},{"title":"아이약국","address":"(01447) 서울특별시 도봉구 도봉로 461 우림빌딩 2층","tel":"070-8886-8802","time":"08:30 ~ 19:00","lng":"127.033363647761","lat":"37.6470562654681"},{"title":"쉐르빌약국","address":"(01454) 서울특별시 도봉구 도봉로 476109호 ","tel":"02-999-4117","time":"09:00 ~ 19:00","lat":0},{"title":"장수당약국","address":"(01304) 서울특별시 도봉구 도봉로 859 ","tel":"02-3492-8217","time":"09:00 ~ 20:30","lng":"127.045189347221","lat":"37.681243203433"},{"title":"대영약국","address":"(01432) 서울특별시 도봉구 도봉로129길 26 ","tel":"02-904-0403","time":"08:30 ~ 21:00","lng":"127.036927658093","lat":"37.6555266055975"},{"title":"한마음약국","address":"(01332) 서울특별시 도봉구 도봉로150길 43 ESA상가2단지215호","tel":"02-3491-6155","time":"09:30 ~ 18:30","lng":"127.045847069683","lat":"37.6662934478885"},{"title":"늘푸른약국","address":"(01308) 서울특별시 도봉구 도봉로163길 7 ","tel":"02-3493-3823","time":"09:00 ~ 19:00","lng":"127.04396013311","lat":"37.6760453811967"},{"title":"부부약국","address":"(01303) 서울특별시 도봉구 도봉로181길 46 ","tel":"02-954-3349","time":"09:00 ~ 21:00","lng":"127.04352811802","lat":"37.6845577156904"}]