[{"title":"마천푸른솔약국","address":"(05755) 서울 송파구 거마로 60 마천푸른솔약국","tel":"02-409-6704","time":"09:00 ~ 22:00","lng":"127.146934349012","lat":"37.498203887186"},{"title":"매일여는온누리약국","address":"(05567) 서울 송파구 백제고분로 187 103,104호","tel":"02-3432-0365","time":"09:00 ~ 익일00:00","lat":0},{"title":"문정우리들 약국","address":"(05854) 서울 송파구 법원로 114 C218호, 문정우리들약국","tel":"02-2283-1522","time":"09:00 ~ 21:00","lng":"127.12100938212","lat":"37.4860552797801"},{"title":"문정이화약국","address":"(05854) 서울 송파구 법원로 114 엠스테이트 C동 214호 문정이화약국","tel":"02-2283-1153","time":"09:00 ~ 20:00","lng":"127.12100938212","lat":"37.4860552797801"},{"title":"태평양약국","address":"(05566) 서울 송파구 석촌호수로 100 1층 태평양약국","tel":"02-2202-0949","time":"09:00 ~ 22:00","lng":"127.087997061978","lat":"37.5079023473102"},{"title":"바다약국","address":"(05607) 서울 송파구 석촌호수로 133 B동 102호, 바다약국","tel":"002-423-8839","time":"09:00 ~ 20:00","lng":"127.091798886664","lat":"37.5076503261616"},{"title":"메디슨약국","address":"(05716) 서울 송파구 송이로 111 드림병원1층 메디슨약국","tel":"02-443-7789","time":"09:00 ~ 19:00","lng":"127.122149842507","lat":"37.4967106752912"},{"title":"고운약국","address":"(05797) 서울 송파구 송이로32길 37 상가04호 고운약국","tel":"02-400-8786","time":"09:00 ~ 21:00","lng":"127.127244307271","lat":"37.4869810920009"},{"title":"뉴프라임약국","address":"(05711) 서울 송파구 송파대로 278 한성빌딩 1층, 뉴프라임약국","tel":"02-403-2638","time":"09:00 ~ 23:00","lng":"127.117732564407","lat":"37.4942820826033"},{"title":"우리헬리오약국","address":"(05698) 서울 송파구 송파대로 345 헬리오시티상가 4층 11호","tel":"02-6396-7588","time":"08:30 ~ 20:00","lng":"127.102531804188","lat":"37.4976145695004"},{"title":"헬리오이화약국","address":"(05698) 서울 송파구 송파대로 345 헬리오시티상가 1A동 1층 1002호","tel":"02-409-3016","time":"09:00 ~ 22:00","lng":"127.102531804188","lat":"37.4976145695004"},{"title":"메디팜하나약국","address":"(05697) 서울 송파구 송파대로 365 1층 메디팜하나약국","tel":"02-2202-7109","time":"08:00 ~ 20:30","lng":"127.111093956687","lat":"37.5004127403363"},{"title":"녹십자약국","address":"(05558) 서울 송파구 올림픽로 130 은성빌딩 1층 녹십자약국","tel":"02-424-7434","time":"09:00 ~ 22:00","lng":"127.084975756199","lat":"37.5113721649145"},{"title":"세계로약국","address":"(05755) 서울특별시 송파구 거마로 66 세계로약국","tel":"02-402-0067","time":"09:00 ~ 21:00","lng":"127.147141175742","lat":"37.498660349489"},{"title":"올바른약국","address":"(05582) 서울특별시 송파구 백제고분로 206 1층 올바른약국","tel":"0263383372","time":"09:00 ~ 20:30","lng":"127.089518874081","lat":"37.5036663003414"},{"title":"왕약국","address":"(05603) 서울특별시 송파구 백제고분로 261 왕약국","tel":"02-2202-5941","time":"09:00 ~ 21:30","lng":"127.095534223877","lat":"37.5027267956952"},{"title":"코끼리약국","address":"(05559) 서울특별시 송파구 석촌호수로 78 코끼리약국","tel":"02-420-2290","time":"09:00 ~ 22:30","lng":"127.08605097671","lat":"37.5093273682022"},{"title":"샤인약국","address":"(05698) 서울특별시 송파구 송파대로 345 헬리오시티상가 1A동 4024-1호 샤인약국","tel":"02-6104-4759","time":"09:00 ~ 21:00","lng":"127.102531804188","lat":"37.4976145695004"},{"title":"새조은약국","address":"(05697) 서울특별시 송파구 송파대로 369 ","tel":"02-400-3600","time":"08:30 ~ 21:00","lng":"127.11087999255","lat":"37.5006438690951"},{"title":"3층메디칼약국","address":"(05648) 서울특별시 송파구 양재대로 1222 3층 23-1호 3층메디칼약국","tel":"02-401-7657","time":"08:00 ~ 20:00","lng":"127.131063164753","lat":"37.5157276361757"},{"title":"마천푸른솔약국","address":"(05755) 서울 송파구 거마로 60 마천푸른솔약국","tel":"02-409-6704","time":"09:00 ~ 22:00","lng":"127.146934349012","lat":"37.498203887186"},{"title":"매일여는온누리약국","address":"(05567) 서울 송파구 백제고분로 187 103,104호","tel":"02-3432-0365","time":"09:00 ~ 익일00:00","lat":0},{"title":"문정우리들 약국","address":"(05854) 서울 송파구 법원로 114 C218호, 문정우리들약국","tel":"02-2283-1522","time":"09:00 ~ 21:00","lng":"127.12100938212","lat":"37.4860552797801"},{"title":"문정이화약국","address":"(05854) 서울 송파구 법원로 114 엠스테이트 C동 214호 문정이화약국","tel":"02-2283-1153","time":"09:00 ~ 20:00","lng":"127.12100938212","lat":"37.4860552797801"},{"title":"태평양약국","address":"(05566) 서울 송파구 석촌호수로 100 1층 태평양약국","tel":"02-2202-0949","time":"09:00 ~ 22:00","lng":"127.087997061978","lat":"37.5079023473102"},{"title":"바다약국","address":"(05607) 서울 송파구 석촌호수로 133 B동 102호, 바다약국","tel":"002-423-8839","time":"09:00 ~ 20:00","lng":"127.091798886664","lat":"37.5076503261616"},{"title":"메디슨약국","address":"(05716) 서울 송파구 송이로 111 드림병원1층 메디슨약국","tel":"02-443-7789","time":"09:00 ~ 19:00","lng":"127.122149842507","lat":"37.4967106752912"},{"title":"고운약국","address":"(05797) 서울 송파구 송이로32길 37 상가04호 고운약국","tel":"02-400-8786","time":"09:00 ~ 21:00","lng":"127.127244307271","lat":"37.4869810920009"},{"title":"뉴프라임약국","address":"(05711) 서울 송파구 송파대로 278 한성빌딩 1층, 뉴프라임약국","tel":"02-403-2638","time":"09:00 ~ 23:00","lng":"127.117732564407","lat":"37.4942820826033"},{"title":"우리헬리오약국","address":"(05698) 서울 송파구 송파대로 345 헬리오시티상가 4층 11호","tel":"02-6396-7588","time":"08:30 ~ 20:00","lng":"127.102531804188","lat":"37.4976145695004"},{"title":"헬리오이화약국","address":"(05698) 서울 송파구 송파대로 345 헬리오시티상가 1A동 1층 1002호","tel":"02-409-3016","time":"09:00 ~ 22:00","lng":"127.102531804188","lat":"37.4976145695004"},{"title":"메디팜하나약국","address":"(05697) 서울 송파구 송파대로 365 1층 메디팜하나약국","tel":"02-2202-7109","time":"08:00 ~ 20:30","lng":"127.111093956687","lat":"37.5004127403363"},{"title":"녹십자약국","address":"(05558) 서울 송파구 올림픽로 130 은성빌딩 1층 녹십자약국","tel":"02-424-7434","time":"09:00 ~ 22:00","lng":"127.084975756199","lat":"37.5113721649145"},{"title":"세계로약국","address":"(05755) 서울특별시 송파구 거마로 66 세계로약국","tel":"02-402-0067","time":"09:00 ~ 21:00","lng":"127.147141175742","lat":"37.498660349489"},{"title":"올바른약국","address":"(05582) 서울특별시 송파구 백제고분로 206 1층 올바른약국","tel":"0263383372","time":"09:00 ~ 20:30","lng":"127.089518874081","lat":"37.5036663003414"},{"title":"왕약국","address":"(05603) 서울특별시 송파구 백제고분로 261 왕약국","tel":"02-2202-5941","time":"09:00 ~ 21:30","lng":"127.095534223877","lat":"37.5027267956952"},{"title":"코끼리약국","address":"(05559) 서울특별시 송파구 석촌호수로 78 코끼리약국","tel":"02-420-2290","time":"09:00 ~ 22:30","lng":"127.08605097671","lat":"37.5093273682022"},{"title":"샤인약국","address":"(05698) 서울특별시 송파구 송파대로 345 헬리오시티상가 1A동 4024-1호 샤인약국","tel":"02-6104-4759","time":"09:00 ~ 21:00","lng":"127.102531804188","lat":"37.4976145695004"},{"title":"새조은약국","address":"(05697) 서울특별시 송파구 송파대로 369 ","tel":"02-400-3600","time":"08:30 ~ 21:00","lng":"127.11087999255","lat":"37.5006438690951"},{"title":"3층메디칼약국","address":"(05648) 서울특별시 송파구 양재대로 1222 3층 23-1호 3층메디칼약국","tel":"02-401-7657","time":"08:00 ~ 20:00","lng":"127.131063164753","lat":"37.5157276361757"},{"title":"새잠실365약국","address":"(05502) 서울특별시 송파구 올림픽로 145 3층 33호 새잠실365약국","tel":"02-424-3209","time":"08:30 ~ 20:00","lng":"127.087041904838","lat":"37.5119804600106"},{"title":"월드중앙약국","address":"(05504) 서울특별시 송파구 올림픽로35길 112 장미B상가 101호 월드중앙약국","tel":"02-423-3016","time":"08:30 ~ 20:30","lng":"127.101802779596","lat":"37.5178827571707"},{"title":"아이파크약국","address":"(05849) 서울특별시 송파구 위례광장로 230 2층 207호 아이파크약국","tel":"02-403-8275","time":"09:00 ~ 19:00","lng":"127.143758763103","lat":"37.4786171055932"},{"title":"환승센터약국","address":"(05608) 서울특별시 송파구 잠실로 지하 156 광역환승센터 101호 환승센터약국","tel":"02-424-2365","time":"08:00 ~ 23:00","lng":"127.101752694786","lat":"37.5113200708735"},{"title":"로체사랑약국","address":"(05799) 서울특별시 송파구 충민로 181 1층, 103호(로체사랑약국)","tel":"02-402-7582","time":"08:30 ~ 23:00","lng":"127.133433044505","lat":"37.4860097360497"},{"title":"메디팜더미소약국","address":"(05816) 서울특별시 송파구 충민로2길 24 리더스프라자 104호 메디팜더미소약국","tel":"070-5097-4461","time":"09:00 ~ 21:00","lng":"127.127283305984","lat":"37.4776438114231"},{"title":"일번약국","address":"(05534) 서울특별시 송파구 토성로 21 (풍납동) 일번약국","tel":"02-473-0056","time":"09:00 ~ 20:00","lng":"127.113000103151","lat":"37.530802764182"},{"title":"영진약국","address":"(05516) 서울특별시 송파구 한가람로16길 7 (풍납동), 상가 102호 영진약국","tel":"02-470-9280","time":"09:00 ~ 22:00","lng":"127.115658827837","lat":"37.5370479077108"},{"title":"해성약국","address":"(05687) 서울 송파구 가락로 111 (석촌동, 영보빌딩) 1층, 해성약국","tel":"02-414-5567","time":"09:00 ~ 19:00","lng":"127.108341744476","lat":"37.5015526358242"},{"title":"수약국","address":"(05687) 서울 송파구 가락로 113 금도빌딩 104호 수약국","tel":"02-423-2664","time":"08:30 ~ 19:00","lng":"127.10864433644","lat":"37.5016797600912"},{"title":"대교약국","address":"(05669) 서울 송파구 가락로 153 대교약국","tel":"02-414-8275","time":"09:00 ~ 21:30","lng":"127.112634964212","lat":"37.5031500671996"},{"title":"이화약산온누리약국","address":"(05663) 서울 송파구 가락로 211 충북빌딩 이화약산온누리약국","tel":"02-419-2755","time":"09:00 ~ 22:00","lng":"127.116274373454","lat":"37.5074746077949"},{"title":"신방이약국","address":"(05633) 서울 송파구 가락로 245 신방이약국","tel":"02-415-0498","time":"09:00 ~ 21:00","lng":"127.11797580084","lat":"37.5101663829521"},{"title":"금강약국","address":"(05696) 서울 송파구 가락로 82 금강약국","tel":"02-415-7014","time":"09:00 ~ 19:00","lng":"127.10534189857","lat":"37.5002861024206"},{"title":"사랑의약국","address":"(05671) 서울 송파구 가락로28길 3 사랑의약국","tel":"02-421-5411","time":"09:00 ~ 21:00","lng":"127.116278927539","lat":"37.5064731367272"},{"title":"가장큰현대아산약국","address":"(05537) 서울 송파구 강동대로 67 가장큰현대아산약국 1층","tel":"010-9072-8498","time":"09:00 ~ 18:00","lng":"127.115258008244","lat":"37.5270111512042"},{"title":"신아산약국","address":"(05537) 서울 송파구 강동대로7길 4 골드빌딩 1층 신아산약국","tel":"02-596-1136","time":"09:00 ~ 18:30","lng":"127.115538851082","lat":"37.5269724040283"},{"title":"예성온누리약국","address":"(05768) 서울 송파구 거마로 28 102호, 예성온누리약국","tel":"02-401-2989","time":"08:30 ~ 17:30","lng":"127.145700119839","lat":"37.4954101353037"},{"title":"마천서울약국","address":"(05755) 서울 송파구 거마로 58 마천서울약국","tel":"02-401-6488","time":"09:00 ~ 20:00","lng":"127.146863399223","lat":"37.4980080066842"},{"title":"동의삼성약국","address":"(05751) 서울 송파구 거마로22길 49 1층 동의삼성약국","tel":"02-400-2636","time":"08:30 ~ 09:00","lng":"127.151984408152","lat":"37.4968915804175"},{"title":"성조약국","address":"(05796) 서울 송파구 동남로 136 한영빌딩1층, 성조약국","tel":"02-407-1569","time":"09:00 ~ 21:00","lng":"127.126049122525","lat":"37.4910647468441"},{"title":"진약국","address":"(05796) 서울 송파구 동남로 138 1층","tel":"02-407-6796","time":"09:00 ~ 21:00","lng":"127.126242693759","lat":"37.4911230155082"},{"title":"메디팜푸른약국","address":"(05823) 서울 송파구 동남로 189 쌍용프라자101호 메디팜푸른약국","tel":"02-400-4201","time":"09:00 ~ 19:30","lng":"127.129853687565","lat":"37.4946614092198"},{"title":"오층조은약국","address":"(05823) 서울 송파구 동남로 189 쌍용프라자 503호","tel":"02-443-1606","time":"09:00 ~ 19:00","lng":"127.129853687565","lat":"37.4946614092198"},{"title":"가락온누리약국","address":"(05820) 서울 송파구 동남로 207 (가락동) 가락온누리약국","tel":"002-400-3332","time":"09:00 ~ 20:00","lng":"127.130903505914","lat":"37.4960694243582"},{"title":"지앤미약국","address":"(05820) 서울 송파구 동남로 215 동원빌딩 1층, 지앤미약국","tel":"02-402-0612","time":"09:00 ~ 20:00","lng":"127.131552744714","lat":"37.4965998462497"},{"title":"송파제일약국","address":"(05820) 서울 송파구 동남로 217 1층 송파제일약국","tel":"02-409-6262","time":"09:00 ~ 19:00","lng":"127.131739510668","lat":"37.4967647925274"},{"title":"극동약국","address":"(05783) 서울 송파구 동남로18길 9 극동상가 104호 극동약국","tel":"02-402-8128","time":"09:00 ~ 19:00","lng":"127.13283790488","lat":"37.494851086928"},{"title":"방이종로약국","address":"(05639) 서울 송파구 마천로 29 1층","tel":"02-3431-0440","time":"09:00 ~ 21:00","lng":"127.124243586707","lat":"37.5095312359703"},{"title":"윤호약국","address":"(05758) 서울 송파구 마천로 311 윤호약국(1층)","tel":"02-400-0148","time":"09:30 ~ 20:30","lng":"127.150361806674","lat":"37.4954514166429"},{"title":"그랜드약국","address":"(05639) 서울 송파구 마천로 35 1층 102호","tel":"02-418-5662","time":"09:00 ~ 21:00","lng":"127.124872436196","lat":"37.5093225310059"},{"title":"새솔약국","address":"(05639) 서울 송파구 마천로 41 수기빌딩 2층, 새솔약국","tel":"02-421-3210","time":"09:00 ~ 20:30","lng":"127.125513382654","lat":"37.5090453335185"},{"title":"고바우약국","address":"(05751) 서울 송파구 마천로41길 21 고바우약국","tel":"02-402-0730","time":"09:00 ~ 22:00","lng":"127.150033023381","lat":"37.4971212183555"},{"title":"마천행복한약국","address":"(05758) 서울 송파구 마천로51길 2 1층 마천행복한약국","tel":"02-449-5982","time":"09:00 ~ 19:30","lng":"127.150520598491","lat":"37.4955196007864"},{"title":"진메디칼약국","address":"(05758) 서울 송파구 마천로57길 3 진메디칼약국","tel":"010-5673-7948","time":"09:00 ~ 21:00","lng":"127.151742363448","lat":"37.4944110617439"},{"title":"중앙프라자약국","address":"(05759) 서울 송파구 마천로57길 4 1층 중앙프라자약국","tel":"02-3401-3818","time":"09:00 ~ 20:00","lng":"127.152063161062","lat":"37.4943486600386"},{"title":"동서약국","address":"(05657) 서울 송파구 마천로5길 4 4층, 동서약국","tel":"02-403-4737","time":"08:30 ~ 19:00","lng":"127.126738418257","lat":"37.5087196639741"},{"title":"문정약국","address":"(05803) 서울 송파구 문정동 31 금천빌딩 1층 문정약국","tel":"02-402-1424","time":"10:00 ~ 20:30","lng":"127.125037553304","lat":"37.4879498686924"},{"title":"풍납라파약국","address":"(05512) 서울 송파구 바람드리길 33 1층 풍납라파약국","tel":"02-488-8878","time":"09:00 ~ 21:00","lng":"127.119571451276","lat":"37.5377185895209"},{"title":"잠실메디신약국","address":"(05577) 서울 송파구 백제고분로 168 1층, 잠실메디신약국","tel":"02-421-4218","time":"09:00 ~ 20:00","lng":"127.085313533194","lat":"37.5048483776498"},{"title":"영보약국","address":"(05581) 서울 송파구 백제고분로 202 두레빌딩102호 영보약국","tel":"02-414-2411","time":"09:30 ~ 19:00","lng":"127.089004805718","lat":"37.5038138229485"},{"title":"삼전종로약국","address":"(05606) 서울 송파구 백제고분로 203 삼전종로약국","tel":"02-415-5716","time":"09:00 ~ 21:30","lng":"127.089394866462","lat":"37.5041889772887"},{"title":"정온누리약국","address":"(05582) 서울 송파구 백제고분로 210 백영빌딩1층2호 정온누리약국","tel":"02-412-7829","time":"09:00 ~ 19:00","lng":"127.089854979646","lat":"37.5035609879437"},{"title":"베스트약국","address":"(05582) 서울 송파구 백제고분로 214 1층 베스트약국","tel":"02-422-5296","time":"09:00 ~ 19:30","lng":"127.090304813685","lat":"37.5034191870878"},{"title":"건강프라자약국","address":"(05582) 서울 송파구 백제고분로 216 1층, 건강프라자약국","tel":"02-417-0910","time":"09:00 ~ 20:00","lng":"127.090519177046","lat":"37.5033659538082"},{"title":"건강샘약국","address":"(05613) 서울 송파구 백제고분로 275 배명빌딩 1층, 건강샘약국","tel":"070-8872-6902","time":"08:30 ~ 19:30","lng":"127.097338135134","lat":"37.5027783021727"},{"title":"하늘약국","address":"(05679) 서울 송파구 백제고분로 276 202호 하늘약국","tel":"02-412-1804","time":"09:00 ~ 19:00","lng":"127.097258552535","lat":"37.5021081097948"},{"title":"푸른약국","address":"(05613) 서울 송파구 백제고분로 279 1층 푸른약국","tel":"02-554-4458","time":"09:00 ~ 10:00","lng":"127.097668980012","lat":"37.5027264915884"},{"title":"오약국","address":"(05667) 서울 송파구 백제고분로 386 1층 오약국","tel":"02-415-6704","time":"23:00 ~ 23:00","lng":"127.108956819714","lat":"37.5058889682158"},{"title":"프라자사랑약국","address":"(05662) 서울 송파구 백제고분로 438 1층 프라자사랑약국","tel":"02-2205-8080","time":"09:00 ~ 18:00","lng":"127.112194332317","lat":"37.5097139452876"},{"title":"예사랑약국","address":"(05641) 서울 송파구 백제고분로 446 2층 예사랑약국","tel":"02-413-4881","time":"09:00 ~ 19:00","lng":"127.112744120149","lat":"37.5104581017222"},{"title":"우리들약국","address":"(05631) 서울 송파구 백제고분로 466 세나빌딩 1층","tel":"02-484-3230","time":"09:00 ~ 18:30","lng":"127.113576572421","lat":"37.511949006372"},{"title":"온누리건강약국","address":"(05575) 서울 송파구 백제고분로12길 17 1층 온누리건강약국","tel":"02-3431-4959","time":"09:30 ~ 22:00","lng":"127.080682292509","lat":"37.5046051166072"},{"title":"도움약국","address":"(05594) 서울 송파구 백제고분로22길 36 101호","tel":"010-2423-6410","time":"10:00 ~ 20:30","lng":"127.088041024615","lat":"37.5009391663825"},{"title":"봄약국","address":"(05616) 서울 송파구 백제고분로39길 14-17 봄약국","tel":"02-413-3113","time":"08:30 ~ 18:30","lng":"127.104827999429","lat":"37.505611861172"},{"title":"송파태양약국","address":"(05642) 서울 송파구 백제고분로48길 22 (방이동) 송파태양약국","tel":"02-424-3641","time":"09:00 ~ 21:30","lng":"127.11553567087","lat":"37.51089698633"},{"title":"지용약국","address":"(05633) 서울 송파구 백제고분로48길 27 1층 지용약국","tel":"02-415-2336","time":"09:00 ~ 21:00","lng":"127.116084404313","lat":"37.5109332993936"},{"title":"녹원약국","address":"(05630) 서울 송파구 백제고분로50길 26 1층","tel":"02-423-0203","time":"09:00 ~ 21:00","lng":"127.11740849992","lat":"37.513436961381"},{"title":"조은약국","address":"(05628) 서울 송파구 백제고분로50길 31 신일빌딩 1층 조은약국","tel":"02-420-2101","time":"09:00 ~ 21:00","lng":"127.118190514199","lat":"37.5134197832103"},{"title":"잠실수약국","address":"(05600) 서울 송파구 삼전로10길 11 잠실수약국","tel":"02-422-0075","time":"09:00 ~ 20:00","lng":"127.090762393196","lat":"37.5057532505897"},{"title":"천사약국","address":"(05810) 서울 송파구 새말로8길 27 봉의빌딩1층","tel":"02-403-7574","time":"09:00 ~ 19:30","lng":"127.126949362639","lat":"37.4802642140717"},{"title":"청호봄약국","address":"(05566) 서울 송파구 석촌호수로 118 403호","tel":"02-3431-7771","time":"09:00 ~ 19:30","lng":"127.090034819367","lat":"37.5074377854011"},{"title":"레이크이화약국","address":"(05607) 서울 송파구 석촌호수로 135 상가A동 122호 레이크이화약국","tel":"070-4897-7137","time":"08:30 ~ 19:30","lng":"127.09238555868","lat":"37.5075719318771"},{"title":"뉴시티약국","address":"(05601) 서울 송파구 석촌호수로 160 수연빌딩 뉴시티약국","tel":"02-413-8897","time":"09:00 ~ 19:00","lng":"127.094781280361","lat":"37.5066902027774"},{"title":"우리온누리약국","address":"(05555) 서울 송파구 석촌호수로 61 트리지움상가 411호","tel":"02-412-5632","time":"09:00 ~ 19:00","lng":"127.086211355223","lat":"37.5107020036631"},{"title":"차돌약국","address":"(05555) 서울 송파구 석촌호수로 61 147호, 차돌약국","tel":"02-422-1239","time":"10:00 ~ 20:00","lng":"127.086211355223","lat":"37.5107020036631"},{"title":"숲약국","address":"(05559) 서울 송파구 석촌호수로 68 숲약국","tel":"02-418-6700","time":"09:00 ~ 21:00","lng":"127.085706241251","lat":"37.510221595369"},{"title":"구인약국","address":"(05749) 서울 송파구 성내천로 261 구본빌딩 1층, 구인약국","tel":"02-443-6401","time":"08:30 ~ 20:00","lng":"127.154353660275","lat":"37.4972270164146"},{"title":"두리약국","address":"(05798) 서울 송파구 송이로 239 1층 4호 두리약국","tel":"02-431-7999","time":"09:30 ~ 18:30","lng":"127.131727143881","lat":"37.4880493688611"},{"title":"참행복한약국","address":"(05707) 서울 송파구 송이로 76 1층, 참행복한약국","tel":"02-3401-4177","time":"09:00 ~ 19:00","lng":"127.119513008234","lat":"37.4990977042848"},{"title":"메디팜대신M약국","address":"(05706) 서울 송파구 송이로 87 동서울빌딩 1층","tel":"02-448-1121","time":"09:00 ~ 20:00","lng":"127.120795228829","lat":"37.4983419879792"},{"title":"서울약국","address":"(05798) 서울 송파구 송이로31길 4 102호 서울약국","tel":"02-448-6201","time":"09:00 ~ 21:00","lng":"127.131863346988","lat":"37.4881506703465"},{"title":"가락약국","address":"(05711) 서울 송파구 송파대로 286 가락약국","tel":"02-449-8421","time":"09:00 ~ 21:00","lng":"127.117167801024","lat":"37.4949097445699"},{"title":"유창온누리약국","address":"(05711) 서울 송파구 송파대로 288 1 층","tel":"010-7345-1657","time":"09:00 ~ 21:00","lat":0},{"title":"사람사랑약국","address":"(05698) 서울 송파구 송파대로 345 헬리오시티 상가a동 5층","tel":"02-3402-0895","time":"09:00 ~ 19:00","lng":"127.102531804188","lat":"37.4976145695004"},{"title":"송파샘약국","address":"(05698) 서울 송파구 송파대로 345 헬리오시티상가1A동2층40호","tel":"02-430-9888","time":"09:00 ~ 19:00","lng":"127.102531804188","lat":"37.4976145695004"},{"title":"영약국","address":"(05698) 서울 송파구 송파대로 345 헬리오시티주상가1A동5층5001호","tel":"02-400-3506","time":"08:30 ~ 19:00","lng":"127.102531804188","lat":"37.4976145695004"},{"title":"트리풀약국","address":"(05698) 서울 송파구 송파대로 345 헬리오시티 상가 1A동 3층 11호","tel":"02-6338-7745","time":"09:00 ~ 19:00","lng":"127.102531804188","lat":"37.4976145695004"},{"title":"행복한 약국 헬리오시티점","address":"(05698) 서울 송파구 송파대로 345 헬리오시티1A상가 1045호","tel":"02-449-1190","time":"09:00 ~ 20:00","lng":"127.102531804188","lat":"37.4976145695004"},{"title":"헬리오메디칼약국","address":"(05698) 서울 송파구 송파대로 345 1A 2층36호 헬리오메디칼약국","tel":"02-400-3815","time":"09:00 ~ 19:30","lat":0},{"title":"미성송파약국","address":"(05676) 서울 송파구 송파대로 374 1층 미성송파약국","tel":"02-420-2419","time":"09:00 ~ 21:00","lng":"127.111218586474","lat":"37.5013306576198"},{"title":"온누리엄마손약국","address":"(05686) 서울 송파구 송파대로 415 1층 온누리엄마손약국","tel":"02-416-3389","time":"09:00 ~ 21:00","lng":"127.107868626976","lat":"37.5039519953664"},{"title":"석촌온누리약국","address":"(05626) 서울 송파구 송파대로 438 녹십초빌딩 103호 석촌온누리약국","tel":"02-421-9789","time":"08:00 ~ 07:00","lng":"127.107019269988","lat":"37.5059260588638"},{"title":"석촌한우리약국","address":"(05616) 서울 송파구 송파대로 441 1층 석촌한우리약국","tel":"02-419-9565","time":"08:30 ~ 19:00","lng":"127.106167920976","lat":"37.5058062726505"},{"title":"에벤에셀약국","address":"(05510) 서울 송파구 송파대로 558 월드타워1층 103호 에벤에셀약국","tel":"02-416-0216","time":"09:00 ~ 19:00","lng":"127.099711730295","lat":"37.5150948546972"},{"title":"스타약국","address":"(05510) 서울 송파구 송파대로 562 웰리스타워3층, 스타약국","tel":"02-3434-1586","time":"08:30 ~ 19:00","lng":"127.099502662936","lat":"37.5153235254771"},{"title":"송파새롬약국","address":"(05718) 서울 송파구 송파대로28길 27 102동 202호 송파새롬약국","tel":"02-403-4131","time":"09:00 ~ 21:00","lng":"127.120093192726","lat":"37.4948868947464"},{"title":"호원약국","address":"(05609) 서울 송파구 송파대로45길 12 1층 호원약국","tel":"02-415-2726","time":"10:00 ~ 22:00","lng":"127.10446765184","lat":"37.5060864693503"},{"title":"산돌약국","address":"(05662) 서울 송파구 송파동 137-8 산돌약국","tel":"02-3431-9800","time":"09:00 ~ 22:00","lng":"127.112590270559","lat":"37.5088592363239"},{"title":"3층하나약국","address":"(05504) 서울 송파구 신천동 7 장미 B상가 3층 하나약국","tel":"02-412-3358","time":"08:30 ~ 19:00","lng":"127.099280476931","lat":"37.5188849274204"},{"title":"온누리건강약국","address":"(05648) 서울 송파구 양재대로 1222 올림픽상가 210호","tel":"02-404-9620","time":"08:30 ~ 20:00","lng":"127.131063164753","lat":"37.5157276361757"},{"title":"프라자약국","address":"(05648) 서울 송파구 양재대로 1222 3층 22호, 프라자약국","tel":"02-3012-0002","time":"09:30 ~ 20:30","lng":"127.131063164753","lat":"37.5157276361757"},{"title":"평화약국","address":"(05699) 서울 송파구 양재대로 932 가락몰업무동 5층 7호 평화약국","tel":"02-407-2218","time":"09:00 ~ 19:00","lng":"127.108713599026","lat":"37.4945376921828"},{"title":"새독일약국","address":"(05663) 서울 송파구 오금로 176 새독일약국","tel":"02-3432-0332","time":"09:00 ~ 08:30","lng":"127.113838998649","lat":"37.5090554495244"},{"title":"위드팜잠실나루역약국","address":"(05504) 서울 송파구 오금로 20 215-080호, 위드팜잠실나루역약국","tel":"02-416-0223","time":"09:00 ~ 21:00","lng":"127.103811089444","lat":"37.5206867318088"},{"title":"새중일약국","address":"(05701) 서울 송파구 오금로 306 가락스타클래스 101호, 새중일약국","tel":"02-448-5186","time":"09:00 ~ 22:00","lng":"127.126114097948","lat":"37.5028743435851"},{"title":"안성약국","address":"(05769) 서울 송파구 오금로 414 안성약국","tel":"02-401-1319","time":"09:00 ~ 19:00","lng":"127.13591630406","lat":"37.4972078608831"},{"title":"안성약국","address":"(05769) 서울 송파구 오금로 414 안성약국","tel":"02-401-1319","time":"09:00 ~ 19:00","lng":"127.13591630406","lat":"37.4972078608831"},{"title":"우림약국","address":"(05744) 서울 송파구 오금로 477 우림약국","tel":"02-430-1911","time":"09:00 ~ 21:00","lng":"127.142349617166","lat":"37.4943492306914"},{"title":"정다운약국","address":"(05744) 서울 송파구 오금로 487 정다운약국","tel":"02-431-3459","time":"09:00 ~ 21:00","lng":"127.143183666858","lat":"37.4939158298536"},{"title":"하나메디칼약국","address":"(05773) 서울 송파구 오금로 504 하나메디칼약국","tel":"02-449-7230","time":"09:00 ~ 20:00","lng":"127.144647366813","lat":"37.4928541028823"},{"title":"미래약국","address":"(05773) 서울 송파구 오금로 516 1층 미래약국","tel":"02-401-5565","time":"08:00 ~ 08:30","lng":"127.146155861134","lat":"37.4928082771831"},{"title":"송파중앙약국","address":"(05548) 서울 송파구 오금로 91 태원빌딩 1층 송파중앙약국","tel":"02-417-0255","time":"09:30 ~ 19:00","lng":"127.107654676422","lat":"37.5140509174178"},{"title":"오렌지온누리약국","address":"(05544) 서울 송파구 오금로11길 37 대명밸리온상가101호","tel":"02-416-5431","time":"09:00 ~ 20:00","lng":"127.111189601349","lat":"37.5156434098608"},{"title":"미소약국","address":"(05645) 서울 송파구 오금로31길 11 미소약국","tel":"02-418-5090","time":"09:00 ~ 21:00","lng":"127.121537924578","lat":"37.5070261053055"},{"title":"다나약국","address":"(05645) 서울 송파구 오금로31길 3 우성빌딩 1층 다나약국","tel":"02-414-9221","time":"09:00 ~ 21:00","lng":"127.121154523531","lat":"37.5064714803482"},{"title":"힐링약국","address":"(05700) 서울 송파구 오금로36길 4-17 1층 힐링약국","tel":"02-407-9933","time":"09:00 ~ 21:00","lng":"127.124841754884","lat":"37.5034635107921"},{"title":"남매약국","address":"(05773) 서울 송파구 오금로64길 4 남매약국","tel":"02-407-8774","time":"09:00 ~ 21:00","lng":"127.147314755158","lat":"37.4925528440657"},{"title":"더블유약국","address":"(05557) 서울 송파구 올림픽로 100 1층","tel":"02-415-1559","time":"09:00 ~ 21:00","lng":"127.081689148468","lat":"37.5114162901687"},{"title":"유한약국","address":"(05557) 서울 송파구 올림픽로 104 1층 3호 유한약국","tel":"02-421-5777","time":"09:00 ~ 21:00","lng":"127.082263786514","lat":"37.5114667980986"},{"title":"신한약국","address":"(05557) 서울 송파구 올림픽로 106 3층 신한약국","tel":"02-423-8283","time":"09:00 ~ 18:00","lng":"127.082554280386","lat":"37.5113962270067"},{"title":"시티약국","address":"(05558) 서울 송파구 올림픽로 116 메디시티 1층 시티약국","tel":"02-3431-4115","time":"09:00 ~ 21:00","lng":"127.083492795772","lat":"37.5113561033686"},{"title":"더하늘약국","address":"(05501) 서울 송파구 올림픽로 119 3층 더하늘약국","tel":"02-3431-8808","time":"09:00 ~ 19:00","lng":"127.08418616626","lat":"37.512084433428"},{"title":"애플약국","address":"(05501) 서울 송파구 올림픽로 119 파인애플상가 3층 12-1 호","tel":"024126728","time":"08:30 ~ 19:00","lng":"127.08418616626","lat":"37.512084433428"},{"title":"엘스3층온누리약국","address":"(05501) 서울 송파구 올림픽로 119 파인애플상가 3층 엘스3층온누리약국","tel":"02-419-2480","time":"09:00 ~ 19:00","lng":"127.08418616626","lat":"37.512084433428"},{"title":"단비온누리약국","address":"(05502) 서울 송파구 올림픽로 145 리센츠상가 1층 A27호 단비온누리약","tel":"02-422-6883","time":"09:00 ~ 21:00","lng":"127.087041904838","lat":"37.5119804600106"},{"title":"갤러리약국","address":"(05553) 서울 송파구 올림픽로 212 갤러리아팰리스 상가 202호","tel":"010-3760-9128","time":"09:00 ~ 19:00","lng":"127.094231575378","lat":"37.5107067799275"},{"title":"메디팜양의약국","address":"(05553) 서울 송파구 올림픽로 212 갤러리아팰리스2층20호 메디팜양의약국","tel":"02-423-0683","time":"09:00 ~ 21:00","lng":"127.094231575378","lat":"37.5107067799275"},{"title":"온누리캐슬프라자약국","address":"(05510) 서울 송파구 올림픽로 269 온누리캐슬프라자약국","tel":"02-2146-2314","time":"10:00 ~ 21:00","lng":"127.100611434725","lat":"37.5144273491608"},{"title":"알파약국","address":"(05510) 서울 송파구 올림픽로 289 지하1층 B101-3호 알파약국","tel":"02--422--2261","time":"09:00 ~ 20:30","lng":"127.102522142353","lat":"37.5146152773177"},{"title":"나루역사거리현대약국","address":"(05507) 서울 송파구 올림픽로 435 163~164호 나루역사거리현대약국","tel":"02--487--1218","time":"09:00 ~ 19:00","lng":"127.104971745978","lat":"37.5213592954462"},{"title":"은세약국","address":"(05538) 서울 송파구 올림픽로 509 풍납동J빌딩1층2호","tel":"02-472-7571","time":"09:00 ~ 20:00","lng":"127.11839160464","lat":"37.5278698593939"},{"title":"지하철약국","address":"(05510) 서울 송파구 올림픽로 지하 265 잠실역지하쇼핑센터 B-13 지하철약국","tel":"02-423-1919","time":"10:00 ~ 22:00","lng":"127.101857941447","lat":"37.513859279255"},{"title":"헬로팜약국","address":"(05558) 서울 송파구 올림픽로12길 5 헬로팜약국","tel":"02-415-1121","time":"09:00 ~ 익일00:00","lng":"127.08309038088","lat":"37.5110669845906"},{"title":"메디팜우주약국","address":"(05507) 서울 송파구 올림픽로35길 10 파크리오B상가 212호 메디팜우주","tel":"02-425-2777","time":"09:00 ~ 18:00","lng":"127.113265047998","lat":"37.5203140390086"},{"title":"온누리솔약국","address":"(05504) 서울 송파구 올림픽로35길 112 2-303(신천동, 장미B)온누리솔약","tel":"02-415-6667","time":"08:30 ~ 18:00","lat":0},{"title":"해오름약국","address":"(05504) 서울 송파구 올림픽로35길 124 407호 해오름약국","tel":"02-422-7254","time":"08:00 ~ 19:00","lng":"127.100709917003","lat":"37.5173453447287"},{"title":"루터약국","address":"(05510) 서울 송파구 올림픽로35다길 42 루터회관 1층 루터약국","tel":"02-6424-7050","time":"09:00 ~ 18:30","lng":"127.103068896795","lat":"37.5152535228382"},{"title":"파크리오오렌지약국","address":"(05507) 서울 송파구 올림픽로37길 130 파크리오A상가 5층516호","tel":"02-417-1369","time":"09:00 ~ 19:00","lng":"127.104421421949","lat":"37.5208819816451"},{"title":"우성약국","address":"(05571) 서울 송파구 올림픽로4길 40 우성나상가 3층 우성약국","tel":"02-423-4080","time":"09:30 ~ 18:30","lng":"127.074204083657","lat":"37.5071938064643"},{"title":"쌍용약국","address":"(05571) 서울 송파구 올림픽로4길 42 프리마상가114호 쌍용약국","tel":"02-413-4013","time":"09:00 ~ 21:00","lng":"127.072027874321","lat":"37.5083255540399"},{"title":"프리마약국","address":"(05571) 서울 송파구 올림픽로4길 48 프리마상가 109호 프리마약국","tel":"02-412-1212","time":"09:00 ~ 20:00","lng":"127.074256049362","lat":"37.5065618089885"},{"title":"보람약국","address":"(05638) 서울 송파구 위례성대로 136 1층 보람약국","tel":"02-415-4809","time":"09:00 ~ 18:00","lng":"127.126499928947","lat":"37.5119629032099"},{"title":"오금중앙약국","address":"(05657) 서울 송파구 위례성대로20길 33 1층 오금중앙약국","tel":"02-403-3666","time":"09:00 ~ 20:00","lng":"127.127158865942","lat":"37.5085461292009"},{"title":"지혜온누리약국","address":"(05558) 서울 송파구 잠실동 184-9 동신빌딩1층","tel":"014-12-5792","time":"09:00 ~ 19:00","lng":"127.085405286136","lat":"37.5111302058182"},{"title":"신화약국","address":"(05563) 서울 송파구 잠실동 218-6 평산빌딩 1층 103호","tel":"02-2202-2468","time":"09:00 ~ 19:00","lng":"127.083336372342","lat":"37.508612114983"},{"title":"공감약국","address":"(05552) 서울 송파구 잠실로 209 지하1층 공감약국","tel":"02-419-8885","time":"08:00 ~ 20:00","lng":"127.106364392884","lat":"37.5138710747422"},{"title":"훼미리약국","address":"(05833) 서울 송파구 중대로 68 106 훼미리약국","tel":"02-400-2112","time":"09:00 ~ 20:00","lng":"127.116437188825","lat":"37.4915653895479"},{"title":"소나무약국","address":"(05833) 서울 송파구 중대로 80 롯데마트 지하 1층 소나무약국","tel":"02-402-4701","time":"10:00 ~ 22:00","lng":"127.117842816756","lat":"37.4917620371568"},{"title":"화인약국","address":"(05833) 서울 송파구 중대로 80 문정프라자 3층","tel":"02-449-0895","time":"09:00 ~ 19:00","lng":"127.117842816756","lat":"37.4917620371568"},{"title":"화인약국","address":"(05833) 서울 송파구 중대로 80 3층 화인약국","tel":"02-449-0895","time":"09:00 ~ 19:00","lng":"127.117842816756","lat":"37.4917620371568"},{"title":"이안약국","address":"(05829) 서울 송파구 중대로10길 5  1층(가락동) 이안약국","tel":"02-3012-3366","time":"09:00 ~ 18:00","lng":"127.12196405692","lat":"37.4934500351833"},{"title":"가든건강약국","address":"(05839) 서울 송파구 충민로 52 S동307호 가든건강약국","tel":"02-2047-1140","time":"10:00 ~ 20:30","lng":"127.122746043108","lat":"37.4777176293094"},{"title":"으뜸약국","address":"(05816) 서울 송파구 충민로2길 24 리더스프라자 103-1호, 으뜸약국","tel":"02-403-0734","time":"09:00 ~ 19:00","lng":"127.127283305984","lat":"37.4776438114231"},{"title":"정약국","address":"(05816) 서울 송파구 충민로2길 28 105호 정약국","tel":"02-431-7887","time":"09:00 ~ 19:00","lng":"127.127416905219","lat":"37.4771583839836"},{"title":"아산약국","address":"(05536) 서울 송파구 토성로 26 아산약국","tel":"02-483-4561","time":"08:30 ~ 19:00","lng":"127.113171175011","lat":"37.5304350820703"},{"title":"미르약국","address":"(05531) 서울 송파구 토성로 65 태양상가 2층 미르약국","tel":"02-486-7517","time":"09:00 ~ 19:00","lng":"127.117345632021","lat":"37.5289079557842"},{"title":"새동산약국","address":"(05520) 서울 송파구 풍성로25가길 11 (풍납동) 새동산약국","tel":"02-472-5549","time":"10:00 ~ 20:00","lng":"127.120248908716","lat":"37.535071754603"},{"title":"행복한 우리약국","address":"(05518) 서울 송파구 풍성로25길 41 1층 (풍납동) 행복한 우리약국","tel":"02-483-5139","time":"09:00 ~ 19:00","lng":"127.121439350154","lat":"37.5369983162325"},{"title":"송파프라자온누리약국","address":"(05697) 서울특별시 송파구 가락로 112 송파프라자온누리약국","tel":"02-425-0539","time":"09:00 ~ 19:00","lng":"127.108509506025","lat":"37.5012719988373"},{"title":"이화약국","address":"(05675) 서울특별시 송파구 가락로 158 (송파동) 이화약국","tel":"02-419-5878","time":"08:30 ~ 19:30","lng":"127.113257730697","lat":"37.5031209999929"},{"title":"방이프라자약국","address":"(05644) 서울특별시 송파구 가락로 244 방이프라자약국","tel":"02-418-2463","time":"09:00 ~ 20:00","lng":"127.118177102688","lat":"37.5097919046242"},{"title":"온누리배명약국","address":"(05694) 서울특별시 송파구 가락로 26 온누리배명약국","tel":"02-422-1866","time":"09:30 ~ 09:00","lng":"127.099403702963","lat":"37.4984450874022"},{"title":"365바른약국","address":"(05696) 서울특별시 송파구 가락로 94 103호","tel":"02-417-1402","time":"09:00 ~ 19:30","lng":"127.106711740392","lat":"37.5007506928673"},{"title":"팜코리아약국","address":"(05688) 서울특별시 송파구 가락로 99 ","tel":"02-424-6167","time":"08:30 ~ 22:00","lng":"127.106959641237","lat":"37.5011513260496"},{"title":"일선약국","address":"(05688) 서울특별시 송파구 가락로11길 8 1층 일선약국","tel":"02-414-0847","time":"09:00 ~ 21:00","lng":"127.104862114003","lat":"37.5010541860792"},{"title":"경인약국","address":"(05636) 서울특별시 송파구 가락로42길 9 경인약국","tel":"02-412-7891","time":"09:00 ~ 21:00","lng":"127.120827278973","lat":"37.512335730835"},{"title":"크게열린약국","address":"(05537) 서울특별시 송파구 강동대로 59-3 (풍납동) 크게열린약국","tel":"02-482-7579","time":"09:00 ~ 18:00","lng":"127.11407997511","lat":"37.5273036788698"},{"title":"주차편한 아산메디칼약국","address":"(05537) 서울특별시 송파구 강동대로 61 주차편한 아산메디칼약국","tel":"02-488-8575","time":"09:00 ~ 19:00","lng":"127.114284348362","lat":"37.5272682521231"},{"title":"밝은중앙약국","address":"(05537) 서울특별시 송파구 강동대로 73 ","tel":"02-482-2621","time":"09:00 ~ 18:00","lng":"127.115618174281","lat":"37.5267647356462"}]