{
    "eGgYg6Z9Qz3iBd4GqWfN2U": {
        "name": "삼화사랑약국",
        "address": "(63323) 제주특별자치도 제주시 건주로 43 1층 삼화사랑약국",
        "tel": "064-755-3545",
        "run_time": "08:30 ~ 21:00",
        "id": "eGgYg6Z9Qz3iBd4GqWfN2U",
        "lng": 126.580987069057,
        "lat": 33.515618997731
    },
    "jsx9oFm8ATrX8jHSghpMa8": {
        "name": "구좌약국",
        "address": "(63361) 제주특별자치도 제주시 구좌읍 구좌로 40 1층",
        "tel": "064-782-8875",
        "run_time": "07:30 ~ 19:30",
        "id": "jsx9oFm8ATrX8jHSghpMa8",
        "lng": 126.855667474488,
        "lat": 33.5232790282259
    },
    "2r6sJ61XGaYkEowWzbAtzG": {
        "name": "메디팜감초당약국",
        "address": "(63361) 제주특별자치도 제주시 구좌읍 구좌로 42 메디팜감초당약국",
        "tel": "064-783-2360",
        "run_time": "08:30 ~ 19:00",
        "id": "2r6sJ61XGaYkEowWzbAtzG",
        "lng": 126.855869740474,
        "lat": 33.5232786326305
    },
    "iVWkr7QWzBBSontdSU579V": {
        "name": "자연약국",
        "address": "(63132) 제주특별자치도 제주시 노연로 90 자연약국",
        "tel": "064-712-1596",
        "run_time": "09:00 ~ 22:30",
        "id": "iVWkr7QWzBBSontdSU579V",
        "lng": 126.489715841975,
        "lat": 33.4857262153656
    },
    "iscxMD66Lo8D917KZCCijM": {
        "name": "으뜸약국",
        "address": "(63083) 제주특별자치도 제주시 노형로 376 ",
        "tel": "064-749-0003",
        "run_time": "09:00 ~ 22:30",
        "id": "iscxMD66Lo8D917KZCCijM",
        "lng": 126.476126253122,
        "lat": 33.483414723833
    },
    "oDx4qEq3oNgjzjx5xFEHXg": {
        "name": "제주토마토약국",
        "address": "(63127) 제주특별자치도 제주시 도령로 73 펠리체상가 101호",
        "tel": "064-712-4003",
        "run_time": "08:30 ~ 21:00",
        "id": "oDx4qEq3oNgjzjx5xFEHXg",
        "lng": 126.485948322561,
        "lat": 33.4901161837273
    },
    "pGuTJhCp6kNgAuRZ5nADku": {
        "name": "낙산약국",
        "address": "(63127) 제주특별자치도 제주시 도령로 87 낙산약국",
        "tel": "064-744-2688",
        "run_time": "08:00 ~ 22:00",
        "id": "pGuTJhCp6kNgAuRZ5nADku",
        "lng": 126.487275468846,
        "lat": 33.4908688308155
    },
    "cw2RjRGURokdkpQ4qN9TnW": {
        "name": "수약국",
        "address": "(63275) 제주특별자치도 제주시 동광로 124 수약국",
        "tel": "064-759-0587",
        "run_time": "09:00 ~ 19:00",
        "id": "cw2RjRGURokdkpQ4qN9TnW",
        "lng": 126.540293885402,
        "lat": 33.5069867270985
    },
    "bVVS8uaXCnQPkrgnYx49ZA": {
        "name": "서사라튼튼약국",
        "address": "(63182) 제주특별자치도 제주시 서사로 137 1층 서사라튼튼약국",
        "tel": "064-752-7365",
        "run_time": "08:30 ~ 19:00",
        "id": "bVVS8uaXCnQPkrgnYx49ZA",
        "lng": 126.520055246037,
        "lat": 33.5001420911967
    },
    "j1tMnbPrqnZeUzM3EpwvkY": {
        "name": "에이스팜플러스약국",
        "address": "(63124) 제주특별자치도 제주시 신대로14길 56 에이스팜플러스약국",
        "tel": "064-711-5553",
        "run_time": "08:00 ~ 익일04:00",
        "id": "j1tMnbPrqnZeUzM3EpwvkY",
        "lng": 126.490481235438,
        "lat": 33.487995336379
    },
    "byrjTMC4NFPYZr6oY3sJD2": {
        "name": "부부온누리약국",
        "address": "(63123) 제주특별자치도 제주시 신대로16길 41 부부온누리약국",
        "tel": "064-742-5252",
        "run_time": "17:00 ~ 익일03:00",
        "id": "byrjTMC4NFPYZr6oY3sJD2",
        "lng": 126.492139331414,
        "lat": 33.4867636252058
    },
    "2k53LiB7rCfDYyJqZ4uCLN": {
        "name": "태평양약국",
        "address": "(63123) 제주특별자치도 제주시 연동7길 30 1층",
        "tel": "064-744-3236",
        "run_time": "16:00 ~ 21:00",
        "id": "2k53LiB7rCfDYyJqZ4uCLN",
        "lng": 126.490528109697,
        "lat": 33.4872302576653
    },
    "g1JNxjbJX2q9gD36DsDk1N": {
        "name": "명인약국",
        "address": "(63234) 제주특별자치도 제주시 연북로 511 1층 명인약국",
        "tel": "064-727-1610",
        "run_time": "09:00 ~ 22:00",
        "id": "g1JNxjbJX2q9gD36DsDk1N",
        "lng": 126.534540530554,
        "lat": 33.4844445262988
    },
    "shDrfLzv5NHc1vYpcZNPrn": {
        "name": "하나약국",
        "address": "(63136) 제주특별자치도 제주시 연북로 99 1층 하나약국",
        "tel": "064-748-2800",
        "run_time": "09:00 ~ 23:00",
        "id": "shDrfLzv5NHc1vYpcZNPrn",
        "lng": 126.492005938839,
        "lat": 33.4821139255537
    },
    "6JzP6su7S3jxuuvmnsHAxt": {
        "name": "열린약국",
        "address": "(63097) 제주특별자치도 제주시 월랑로10길 34 열린약국",
        "tel": "064-748-1551",
        "run_time": "08:00 ~ 21:00",
        "id": "6JzP6su7S3jxuuvmnsHAxt",
        "lng": 126.478761417262,
        "lat": 33.490928248696
    },
    "9NG16D9kf6h84fQCsNydt6": {
        "name": "신한당약국",
        "address": "(63333) 제주특별자치도 제주시 조천읍 신북로 530 신한당약국",
        "tel": "064-783-8087",
        "run_time": "08:30 ~ 21:00",
        "id": "9NG16D9kf6h84fQCsNydt6",
        "lng": 126.666361762931,
        "lat": 33.5415018463703
    },
    "u6PjBjQvfZBxG7rpsG4SZF": {
        "name": "정민당약국",
        "address": "(63194) 제주특별자치도 제주시 중앙로 127 정민당약국",
        "tel": "064-722-3337",
        "run_time": "09:00 ~ 19:00",
        "id": "u6PjBjQvfZBxG7rpsG4SZF",
        "lng": 126.524800210254,
        "lat": 33.5073114444632
    },
    "o8Yj9Q7WNRrvtCBqJhZVrV": {
        "name": "우성약국",
        "address": "(63255) 제주특별자치도 제주시 천수로 53 우성약국",
        "tel": "064-722-6019",
        "run_time": "08:30 ~ 21:00",
        "id": "o8Yj9Q7WNRrvtCBqJhZVrV",
        "lng": 126.542229192159,
        "lat": 33.5041423370009
    },
    "t7NNLatns4NJJktTgN4QCB": {
        "name": "탑동보룡약국",
        "address": "(63165) 제주특별자치도 제주시 탑동로 24 1층",
        "tel": "064-726-4949",
        "run_time": "08:00 ~ 23:00",
        "id": "t7NNLatns4NJJktTgN4QCB",
        "lng": 126.522460881414,
        "lat": 33.517560202795
    },
    "4nafhx9JgtB1ckt39L94mf": {
        "name": "시원한 약국",
        "address": "(63323) 제주특별자치도 제주시 화삼북로 68 1층 시원한 약국",
        "tel": "064-753-8085",
        "run_time": "09:00 ~ 21:00",
        "id": "4nafhx9JgtB1ckt39L94mf",
        "lng": 126.580288525295,
        "lat": 33.5170666641725
    },
    "9eNerD2aE93geWjPyxtUED": {
        "name": "삼화사랑약국",
        "address": "(63323) 제주특별자치도 제주시 건주로 43 1층 삼화사랑약국",
        "tel": "064-755-3545",
        "run_time": "08:30 ~ 21:00",
        "id": "9eNerD2aE93geWjPyxtUED",
        "lng": 126.580987069057,
        "lat": 33.515618997731
    },
    "hRoPCuSm4XUUv2w8kN66Zq": {
        "name": "구좌약국",
        "address": "(63361) 제주특별자치도 제주시 구좌읍 구좌로 40 1층",
        "tel": "064-782-8875",
        "run_time": "07:30 ~ 19:30",
        "id": "hRoPCuSm4XUUv2w8kN66Zq",
        "lng": 126.855667474488,
        "lat": 33.5232790282259
    },
    "uVyTsYgv6M5pRA6PjR8yMs": {
        "name": "메디팜감초당약국",
        "address": "(63361) 제주특별자치도 제주시 구좌읍 구좌로 42 메디팜감초당약국",
        "tel": "064-783-2360",
        "run_time": "08:30 ~ 19:00",
        "id": "uVyTsYgv6M5pRA6PjR8yMs",
        "lng": 126.855869740474,
        "lat": 33.5232786326305
    },
    "ecWkD185i3B3uH3goiNiUy": {
        "name": "자연약국",
        "address": "(63132) 제주특별자치도 제주시 노연로 90 자연약국",
        "tel": "064-712-1596",
        "run_time": "09:00 ~ 22:30",
        "id": "ecWkD185i3B3uH3goiNiUy",
        "lng": 126.489715841975,
        "lat": 33.4857262153656
    },
    "r84APm4u9ZEwJUXfSrqAmz": {
        "name": "으뜸약국",
        "address": "(63083) 제주특별자치도 제주시 노형로 376 ",
        "tel": "064-749-0003",
        "run_time": "09:00 ~ 22:30",
        "id": "r84APm4u9ZEwJUXfSrqAmz",
        "lng": 126.476126253122,
        "lat": 33.483414723833
    },
    "9SpGqzy4yMoZ6UHM7x6iC1": {
        "name": "제주토마토약국",
        "address": "(63127) 제주특별자치도 제주시 도령로 73 펠리체상가 101호",
        "tel": "064-712-4003",
        "run_time": "08:30 ~ 21:00",
        "id": "9SpGqzy4yMoZ6UHM7x6iC1",
        "lng": 126.485948322561,
        "lat": 33.4901161837273
    },
    "h7q2F3w8dRbPAd4fEaPX8o": {
        "name": "낙산약국",
        "address": "(63127) 제주특별자치도 제주시 도령로 87 낙산약국",
        "tel": "064-744-2688",
        "run_time": "08:00 ~ 22:00",
        "id": "h7q2F3w8dRbPAd4fEaPX8o",
        "lng": 126.487275468846,
        "lat": 33.4908688308155
    },
    "rWJsZmYeK2rkPKvJsKDJem": {
        "name": "수약국",
        "address": "(63275) 제주특별자치도 제주시 동광로 124 수약국",
        "tel": "064-759-0587",
        "run_time": "09:00 ~ 19:00",
        "id": "rWJsZmYeK2rkPKvJsKDJem",
        "lng": 126.540293885402,
        "lat": 33.5069867270985
    },
    "eW4vQZrCKvrwzaRUXTLoQp": {
        "name": "서사라튼튼약국",
        "address": "(63182) 제주특별자치도 제주시 서사로 137 1층 서사라튼튼약국",
        "tel": "064-752-7365",
        "run_time": "08:30 ~ 19:00",
        "id": "eW4vQZrCKvrwzaRUXTLoQp",
        "lng": 126.520055246037,
        "lat": 33.5001420911967
    },
    "wuH9wjJc8Sgvore1ZvJyT5": {
        "name": "에이스팜플러스약국",
        "address": "(63124) 제주특별자치도 제주시 신대로14길 56 에이스팜플러스약국",
        "tel": "064-711-5553",
        "run_time": "08:00 ~ 익일04:00",
        "id": "wuH9wjJc8Sgvore1ZvJyT5",
        "lng": 126.490481235438,
        "lat": 33.487995336379
    },
    "p6dwajrgKRe1WeoNR3Hf9M": {
        "name": "부부온누리약국",
        "address": "(63123) 제주특별자치도 제주시 신대로16길 41 부부온누리약국",
        "tel": "064-742-5252",
        "run_time": "17:00 ~ 익일03:00",
        "id": "p6dwajrgKRe1WeoNR3Hf9M",
        "lng": 126.492139331414,
        "lat": 33.4867636252058
    },
    "mcWSacoxHK1gwhRP42Hbkh": {
        "name": "태평양약국",
        "address": "(63123) 제주특별자치도 제주시 연동7길 30 1층",
        "tel": "064-744-3236",
        "run_time": "16:00 ~ 21:00",
        "id": "mcWSacoxHK1gwhRP42Hbkh",
        "lng": 126.490528109697,
        "lat": 33.4872302576653
    },
    "kbQd8aSLyHoJJprCUuKnTW": {
        "name": "명인약국",
        "address": "(63234) 제주특별자치도 제주시 연북로 511 1층 명인약국",
        "tel": "064-727-1610",
        "run_time": "09:00 ~ 22:00",
        "id": "kbQd8aSLyHoJJprCUuKnTW",
        "lng": 126.534540530554,
        "lat": 33.4844445262988
    },
    "eLZvemszGfeV5xu1obY9Xa": {
        "name": "하나약국",
        "address": "(63136) 제주특별자치도 제주시 연북로 99 1층 하나약국",
        "tel": "064-748-2800",
        "run_time": "09:00 ~ 23:00",
        "id": "eLZvemszGfeV5xu1obY9Xa",
        "lng": 126.492005938839,
        "lat": 33.4821139255537
    },
    "etbe3bZcL3GV6iaLpfXLv1": {
        "name": "열린약국",
        "address": "(63097) 제주특별자치도 제주시 월랑로10길 34 열린약국",
        "tel": "064-748-1551",
        "run_time": "08:00 ~ 21:00",
        "id": "etbe3bZcL3GV6iaLpfXLv1",
        "lng": 126.478761417262,
        "lat": 33.490928248696
    },
    "9EQcbDTSEezXtFyYJBwDAB": {
        "name": "신한당약국",
        "address": "(63333) 제주특별자치도 제주시 조천읍 신북로 530 신한당약국",
        "tel": "064-783-8087",
        "run_time": "08:30 ~ 21:00",
        "id": "9EQcbDTSEezXtFyYJBwDAB",
        "lng": 126.666361762931,
        "lat": 33.5415018463703
    },
    "bKXLbwtAXr2exoSVTCszSk": {
        "name": "정민당약국",
        "address": "(63194) 제주특별자치도 제주시 중앙로 127 정민당약국",
        "tel": "064-722-3337",
        "run_time": "09:00 ~ 19:00",
        "id": "bKXLbwtAXr2exoSVTCszSk",
        "lng": 126.524800210254,
        "lat": 33.5073114444632
    },
    "67cWU2uTuJn2jw194bkWGd": {
        "name": "우성약국",
        "address": "(63255) 제주특별자치도 제주시 천수로 53 우성약국",
        "tel": "064-722-6019",
        "run_time": "08:30 ~ 21:00",
        "id": "67cWU2uTuJn2jw194bkWGd",
        "lng": 126.542229192159,
        "lat": 33.5041423370009
    },
    "6b9sJfT3u3rPgt8XCPrBY8": {
        "name": "탑동보룡약국",
        "address": "(63165) 제주특별자치도 제주시 탑동로 24 1층",
        "tel": "064-726-4949",
        "run_time": "08:00 ~ 23:00",
        "id": "6b9sJfT3u3rPgt8XCPrBY8",
        "lng": 126.522460881414,
        "lat": 33.517560202795
    },
    "ksbrDcyJ4uimZfgDX5nSji": {
        "name": "시원한 약국",
        "address": "(63323) 제주특별자치도 제주시 화삼북로 68 1층 시원한 약국",
        "tel": "064-753-8085",
        "run_time": "09:00 ~ 21:00",
        "id": "ksbrDcyJ4uimZfgDX5nSji",
        "lng": 126.580288525295,
        "lat": 33.5170666641725
    },
    "tEdJFtQzfwhvXxHWMVRBGj": {
        "name": "은우약국",
        "address": "(63087) 제주특별자치도 제주시 1100로 3283 ",
        "tel": "064-748-7542",
        "run_time": "09:00 ~ 20:00",
        "id": "tEdJFtQzfwhvXxHWMVRBGj",
        "lng": 126.481797861927,
        "lat": 33.4794043922342
    },
    "5jUQiogTxV8gv7N3WbmQUP": {
        "name": "새봄약국",
        "address": "(63083) 제주특별자치도 제주시 1100로 3333 새봄약국",
        "tel": "064-712-0086",
        "run_time": "08:30 ~ 19:30",
        "id": "5jUQiogTxV8gv7N3WbmQUP",
        "lng": 126.480144305382,
        "lat": 33.4836219692901
    },
    "1sn8ycUZfc1RGb8eAc6mdt": {
        "name": "별약국",
        "address": "(63323) 제주특별자치도 제주시 건주로 27 102호",
        "tel": "064-723-0085",
        "run_time": "08:30 ~ 21:00",
        "id": "1sn8ycUZfc1RGb8eAc6mdt",
        "lng": 126.5811410102,
        "lat": 33.5170882126091
    },
    "mfAuJTrQqaCdCEVDYqT5sk": {
        "name": "설약국",
        "address": "(63323) 제주특별자치도 제주시 건주로 31 1층 설약국",
        "tel": "064-723-7599",
        "run_time": "09:00 ~ 21:00",
        "id": "mfAuJTrQqaCdCEVDYqT5sk",
        "lng": 126.580982878284,
        "lat": 33.5167785217559
    },
    "7DNVoTfct854GvSoyW53iH": {
        "name": "강약국",
        "address": "(63259) 제주특별자치도 제주시 고마로 147 강약국",
        "tel": "064-726-6366",
        "run_time": "08:00 ~ 19:00",
        "id": "7DNVoTfct854GvSoyW53iH",
        "lng": 126.543469074284,
        "lat": 33.5016641058548
    },
    "og7DHVSiVQ4rMiTuw9w7G7": {
        "name": "메디칼약국",
        "address": "(63259) 제주특별자치도 제주시 고마로 149 1층 메디칼약국",
        "tel": "064-726-2200",
        "run_time": "09:00 ~ 20:00",
        "id": "og7DHVSiVQ4rMiTuw9w7G7",
        "lng": 126.543570318192,
        "lat": 33.5015046264362
    },
    "msfKkGEwuLMduA9DrY7cZp": {
        "name": "정존약국",
        "address": "(63093) 제주특별자치도 제주시 고사마루길 2 1층",
        "tel": "064-742-2378",
        "run_time": "09:00 ~ 21:00",
        "id": "msfKkGEwuLMduA9DrY7cZp",
        "lng": 126.472234040441,
        "lat": 33.4802908734374
    },
    "8LH9ZPJRbMZDEJpbJVcUfn": {
        "name": "제주공항약국",
        "address": "(63115) 제주특별자치도 제주시 공항로 2 제주국제공항 여객청사 3층",
        "tel": "064-743-3213",
        "run_time": "06:00 ~ 21:00",
        "id": "8LH9ZPJRbMZDEJpbJVcUfn",
        "lng": 126.495951277797,
        "lat": 33.5059364682672
    },
    "wFwgk1ogxhz8hRSZYHFrV1": {
        "name": "대정약국",
        "address": "(63085) 제주특별자치도 제주시 과원북4길 35 1층 대정약국",
        "tel": "064-743-3734",
        "run_time": "08:30 ~ 19:00",
        "id": "wFwgk1ogxhz8hRSZYHFrV1",
        "lng": 126.486371601557,
        "lat": 33.4812622296803
    },
    "iWSKshMesZVL9vwp6WT4kK": {
        "name": "인수당건재약국",
        "address": "(63192) 제주특별자치도 제주시 관덕로 54-2 인수당건재약국",
        "tel": "064-722-3030",
        "run_time": "09:00 ~ 19:00",
        "id": "iWSKshMesZVL9vwp6WT4kK",
        "lng": 126.525041395467,
        "lat": 33.5130047427775
    },
    "rk64gqtJ2Mf4b26g6paDCz": {
        "name": "유진약국",
        "address": "(63192) 제주특별자치도 제주시 관덕로 60 1층 유진약국",
        "tel": "064-753-7116",
        "run_time": "08:30 ~ 21:00",
        "id": "rk64gqtJ2Mf4b26g6paDCz",
        "lng": 126.525711640813,
        "lat": 33.5129407733201
    },
    "g8kVkGQxjoeLiY9edGH4KD": {
        "name": "조일약국",
        "address": "(63277) 제주특별자치도 제주시 관덕로 63 조일약국",
        "tel": "064-757-2273",
        "run_time": "08:30 ~ 19:30",
        "id": "g8kVkGQxjoeLiY9edGH4KD",
        "lng": 126.526081549986,
        "lat": 33.5132798345909
    },
    "h3wFVc7CDiGUpwti4YEoEH": {
        "name": "정성약국",
        "address": "(63192) 제주특별자치도 제주시 관덕로 66 정성약국",
        "tel": "064-702-2255",
        "run_time": "08:30 ~ 19:30",
        "id": "h3wFVc7CDiGUpwti4YEoEH",
        "lng": 126.526286786596,
        "lat": 33.5128681419798
    },
    "1f5KHxv3EZp3y3wYngsViF": {
        "name": "제일약국",
        "address": "(63361) 제주특별자치도 제주시 구좌읍 구좌로 47 제일약국",
        "tel": "064-783-2010",
        "run_time": "08:30 ~ 19:00",
        "id": "1f5KHxv3EZp3y3wYngsViF",
        "lng": 126.856614176205,
        "lat": 33.5233019464664
    },
    "71inwBNodcz4YpnBgKwccB": {
        "name": "세화약국",
        "address": "(63361) 제주특별자치도 제주시 구좌읍 세화10길 1 1층 세화약국",
        "tel": "064-784-8442",
        "run_time": "08:00 ~ 23:00",
        "id": "71inwBNodcz4YpnBgKwccB",
        "lng": 126.858782714682,
        "lat": 33.5208355861818
    },
    "961uHR4hreEDeJ3hPtv8yr": {
        "name": "남광약국",
        "address": "(63230) 제주특별자치도 제주시 남광로2길 43 남광약국",
        "tel": "064-757-6015",
        "run_time": "09:00 ~ 19:00",
        "id": "961uHR4hreEDeJ3hPtv8yr",
        "lng": 126.540041851833,
        "lat": 33.4892589358421
    },
    "c2MbHmVH4fPJSVq5BFCfFz": {
        "name": "창신약국",
        "address": "(63169) 제주특별자치도 제주시 남성로 143 ",
        "tel": "064-758-8313",
        "run_time": "09:00 ~ 21:00",
        "id": "c2MbHmVH4fPJSVq5BFCfFz",
        "lng": 126.520528850653,
        "lat": 33.5092974205792
    },
    "wATY7Fvgvd21UKuZWmUm17": {
        "name": "영제약국",
        "address": "(63083) 제주특별자치도 제주시 노형8길 3 우학빌딩 1층",
        "tel": "064-726-3090",
        "run_time": "09:00 ~ 18:30",
        "id": "wATY7Fvgvd21UKuZWmUm17",
        "lng": 126.477797252714,
        "lat": 33.4844444517438
    },
    "78DKEds6c1iRq4y7YYcLpV": {
        "name": "예은온누리약국",
        "address": "(63083) 제주특별자치도 제주시 노형8길 8 1층",
        "tel": "064-747-1225",
        "run_time": "08:30 ~ 22:00",
        "id": "78DKEds6c1iRq4y7YYcLpV",
        "lng": 126.477847039423,
        "lat": 33.4840011684389
    },
    "a2xa53xQfJsTEq2JjtaqEf": {
        "name": "미소약국",
        "address": "(63097) 제주특별자치도 제주시 노형동 1054-6 105호 미소약국",
        "tel": "064-712-2928",
        "run_time": "08:30 ~ 18:00",
        "id": "a2xa53xQfJsTEq2JjtaqEf",
        "lng": 126.476574642264,
        "lat": 33.488791366549
    },
    "nFR147QmfkYWuTBriJ8EF3": {
        "name": "싱싱약국",
        "address": "(63083) 제주특별자치도 제주시 노형로 386 싱싱약국",
        "tel": "064-711-7242",
        "run_time": "08:30 ~ 18:30",
        "id": "nFR147QmfkYWuTBriJ8EF3",
        "lng": 126.4769251227,
        "lat": 33.4841515431711
    },
    "rmUYiHTh95sBU6WXRhEuXC": {
        "name": "노형타워약국",
        "address": "(63099) 제주특별자치도 제주시 노형로 407 B102호",
        "tel": "064-747-0828",
        "run_time": "09:00 ~ 18:00",
        "id": "rmUYiHTh95sBU6WXRhEuXC",
        "lng": 126.478301044424,
        "lat": 33.485821410903
    },
    "syNYs3xoSfCohCJJXtBiHS": {
        "name": "휴베이스 건강드림약국",
        "address": "(63098) 제주특별자치도 제주시 도령로 1 건강드림약국",
        "tel": "064-744-0369",
        "run_time": "08:00 ~ 18:30",
        "id": "syNYs3xoSfCohCJJXtBiHS",
        "lng": 126.479321267482,
        "lat": 33.486812673941
    },
    "ojeXWbjDoZRNNBJAq74AXb": {
        "name": "유성약국",
        "address": "(63098) 제주특별자치도 제주시 도령로 5 유성약국",
        "tel": "064-744-5477",
        "run_time": "08:00 ~ 19:00",
        "id": "ojeXWbjDoZRNNBJAq74AXb",
        "lng": 126.479932791957,
        "lat": 33.486787562871
    },
    "9fkdkFeQzbvMayx9niKvCn": {
        "name": "신한온누리약국",
        "address": "(63129) 제주특별자치도 제주시 도령로 74 신한온누리약국",
        "tel": "064-744-1783",
        "run_time": "08:30 ~ 20:00",
        "id": "9fkdkFeQzbvMayx9niKvCn",
        "lng": 126.486332954052,
        "lat": 33.4897415444847
    },
    "m1fQefesn1spEzB5LRAgCp": {
        "name": "명원약국",
        "address": "(63275) 제주특별자치도 제주시 동광로 100 명원약국",
        "tel": "064-753-0660",
        "run_time": "08:30 ~ 19:00",
        "id": "m1fQefesn1spEzB5LRAgCp",
        "lng": 126.538443642564,
        "lat": 33.5055019582814
    },
    "9Sxb2qU1QPnPwRweQnJ8kB": {
        "name": "인제약국",
        "address": "(63275) 제주특별자치도 제주시 동광로 108-1 인제약국",
        "tel": "064-724-7276",
        "run_time": "09:00 ~ 19:00",
        "id": "9Sxb2qU1QPnPwRweQnJ8kB",
        "lng": 126.538992574974,
        "lat": 33.5059574127205
    },
    "vhYKBcis1snoiPPRsDJ76X": {
        "name": "인화온누리약국",
        "address": "(63275) 제주특별자치도 제주시 동광로 110 인화온누리약국",
        "tel": "064-724-7272",
        "run_time": "08:30 ~ 19:00",
        "id": "vhYKBcis1snoiPPRsDJ76X",
        "lng": 126.539246511365,
        "lat": 33.5061298401656
    },
    "eY8MquaTQ6osk7op1EbGci": {
        "name": "화신온누리약국",
        "address": "(63253) 제주특별자치도 제주시 동광로 129 화신온누리약국",
        "tel": "064-722-2944",
        "run_time": "08:30 ~ 19:00",
        "id": "eY8MquaTQ6osk7op1EbGci",
        "lng": 126.540376062933,
        "lat": 33.5078710428623
    },
    "gDrGUrFtsAKGuBQMeib34E": {
        "name": "고승아약국",
        "address": "(63253) 제주특별자치도 제주시 동광로 131 고승아약국",
        "tel": "064-726-6988",
        "run_time": "08:30 ~ 20:00",
        "id": "gDrGUrFtsAKGuBQMeib34E",
        "lng": 126.540471800294,
        "lat": 33.5079413615319
    },
    "2dbWs3uuYy2og6979uRbiD": {
        "name": "세브란스약국",
        "address": "(63214) 제주특별자치도 제주시 동광로 90 세브란스약국",
        "tel": "064-722-5711",
        "run_time": "09:00 ~ 21:00",
        "id": "2dbWs3uuYy2og6979uRbiD",
        "lng": 126.537739354044,
        "lat": 33.5048156552258
    },
    "iMt94a8YFgXXgxP7Njrosm": {
        "name": "보림약국",
        "address": "(63278) 제주특별자치도 제주시 동문로 35 보림약국",
        "tel": "064-722-3788",
        "run_time": "08:00 ~ 19:00",
        "id": "iMt94a8YFgXXgxP7Njrosm",
        "lng": 126.530409934429,
        "lat": 33.5131036478419
    },
    "iwY1vFa8U3DMv4vTGiwyNV": {
        "name": "위생약국",
        "address": "(63264) 제주특별자치도 제주시 동문로 40 위생약국",
        "tel": "064-753-2630",
        "run_time": "07:00 ~ 19:30",
        "id": "iwY1vFa8U3DMv4vTGiwyNV",
        "lng": 126.530841362093,
        "lat": 33.5128965642625
    },
    "j3uNCiinRezNZXFqhrDKHd": {
        "name": "조은약국",
        "address": "(63266) 제주특별자치도 제주시 동문로20길 1 1층 조은약국",
        "tel": "064-721-7271",
        "run_time": "08:30 ~ 19:00",
        "id": "j3uNCiinRezNZXFqhrDKHd",
        "lng": 126.53663219695,
        "lat": 33.5136308871107
    },
    "hJXnbMiJhEFewcZZApotAK": {
        "name": "옵티마힐링약국",
        "address": "(63300) 제주특별자치도 제주시 동화로 28 1층 옵티마힐링약국",
        "tel": "064-757-6860",
        "run_time": "09:00 ~ 20:00",
        "id": "hJXnbMiJhEFewcZZApotAK",
        "lng": 126.572794072486,
        "lat": 33.5178427402212
    },
    "bndB6obiPds4CbgNLtWsie": {
        "name": "그린약국",
        "address": "(63300) 제주특별자치도 제주시 동화로 30 그린약국",
        "tel": "064-727-1175",
        "run_time": "08:30 ~ 19:30",
        "id": "bndB6obiPds4CbgNLtWsie",
        "lng": 126.5727900733,
        "lat": 33.5176052471037
    },
    "rrTEc6NfB2v8t3Jwe1fApZ": {
        "name": "동의당온누리약국",
        "address": "(63279) 제주특별자치도 제주시 만덕로 21 동의당온누리약국",
        "tel": "064-758-2685",
        "run_time": "09:00 ~ 20:00",
        "id": "rrTEc6NfB2v8t3Jwe1fApZ",
        "lng": 126.532171968381,
        "lat": 33.5147231699557
    },
    "3bJqQSpE5XXfDnXUFBgYgn": {
        "name": "번영약국",
        "address": "(63313) 제주특별자치도 제주시 번영로 500 1층 번영약국",
        "tel": "064-900-4395",
        "run_time": "08:30 ~ 19:00",
        "id": "3bJqQSpE5XXfDnXUFBgYgn",
        "lng": 126.594819609272,
        "lat": 33.490149872474
    },
    "9tkgcCWNADQtHUnvFw8AtG": {
        "name": "오름아래약국",
        "address": "(63129) 제주특별자치도 제주시 삼무로 18 105호 오름아래약국",
        "tel": "064-805-2093",
        "run_time": "09:00 ~ 익일00:00",
        "id": "9tkgcCWNADQtHUnvFw8AtG",
        "lng": 126.488660583969,
        "lat": 33.4895983510098
    },
    "qqGVFiSqkmhhVQo8jVQLTP": {
        "name": "한라프라자약국",
        "address": "(63124) 제주특별자치도 제주시 삼무로 46 한라프라자약국",
        "tel": "064-743-2098",
        "run_time": "08:30 ~ 18:30",
        "id": "qqGVFiSqkmhhVQo8jVQLTP",
        "lng": 126.491545207446,
        "lat": 33.4896484476898
    },
    "9ShAjiZnof4jkhJ2evkbeG": {
        "name": "동현약국",
        "address": "(63327) 제주특별자치도 제주시 삼봉로 327 A동 102호",
        "tel": "064-723-0490",
        "run_time": "08:30 ~ 18:30",
        "id": "9ShAjiZnof4jkhJ2evkbeG",
        "lng": 126.594219147406,
        "lat": 33.4940793199306
    },
    "jVuAwHkh3myMiaMfzxCwSr": {
        "name": "온누리대우약국",
        "address": "(63184) 제주특별자치도 제주시 서광로 171 온누리대우약국",
        "tel": "064-753-3390",
        "run_time": "08:30 ~ 21:30",
        "id": "jVuAwHkh3myMiaMfzxCwSr",
        "lng": 126.514721990879,
        "lat": 33.5002496144059
    },
    "8o4jpsXas8aY69JooogMjn": {
        "name": "수성약국",
        "address": "(63184) 제주특별자치도 제주시 서광로 173 수성약국",
        "tel": "064-751-2526",
        "run_time": "07:30 ~ 19:30",
        "id": "8o4jpsXas8aY69JooogMjn",
        "lng": 126.514947797042,
        "lat": 33.5002443677642
    },
    "dFvgct4whwmpaG5wtemnxr": {
        "name": "감초당약국",
        "address": "(63184) 제주특별자치도 제주시 서광로 181 ",
        "tel": "064-722-4370",
        "run_time": "09:00 ~ 18:30",
        "id": "dFvgct4whwmpaG5wtemnxr",
        "lng": 126.51595244176,
        "lat": 33.5002343219569
    },
    "aAMSNJjJ8KmQwuKPqffFNa": {
        "name": "하나로약국",
        "address": "(63183) 제주특별자치도 제주시 서광로 189 하나로약국",
        "tel": "064-726-0282",
        "run_time": "08:30 ~ 19:00",
        "id": "aAMSNJjJ8KmQwuKPqffFNa",
        "lng": 126.516653933658,
        "lat": 33.5002243480074
    },
    "wmRDzerg8nnHma6Hk6G4LV": {
        "name": "우리약국",
        "address": "(63183) 제주특별자치도 제주시 서광로 195 우리약국",
        "tel": "064-758-1894",
        "run_time": "08:00 ~ 20:30",
        "id": "wmRDzerg8nnHma6Hk6G4LV",
        "lng": 126.517434116968,
        "lat": 33.5001905139285
    },
    "7dmy3L5ku9Jk3QKB1bPXs5": {
        "name": "금호약국",
        "address": "(63185) 제주특별자치도 제주시 서광로 202 ",
        "tel": "064-752-3200",
        "run_time": "08:00 ~ 20:30",
        "id": "7dmy3L5ku9Jk3QKB1bPXs5",
        "lng": 126.517875241457,
        "lat": 33.4997034782436
    },
    "mQpCM3BLvnSpHWa7F2wMEi": {
        "name": "해약국",
        "address": "(63182) 제주특별자치도 제주시 서광로 263 해약국",
        "tel": "064-725-2283",
        "run_time": "08:30 ~ 18:00",
        "id": "mQpCM3BLvnSpHWa7F2wMEi",
        "lng": 126.524595836648,
        "lat": 33.5002241500889
    },
    "s1HeRB21Vjcx1NtDcGGbJQ": {
        "name": "성종약국",
        "address": "(63182) 제주특별자치도 제주시 서광로 267 성종약국",
        "tel": "064-721-0224",
        "run_time": "08:30 ~ 19:30",
        "id": "s1HeRB21Vjcx1NtDcGGbJQ",
        "lng": 126.524944772172,
        "lat": 33.5002353157767
    },
    "cMSD7PDGmk8fGPEEy4MJoQ": {
        "name": "만년약국",
        "address": "(63200) 제주특별자치도 제주시 서광로 268 만년약국",
        "tel": "064-726-8806",
        "run_time": "08:00 ~ 19:00",
        "id": "cMSD7PDGmk8fGPEEy4MJoQ",
        "lng": 126.525191367395,
        "lat": 33.4997533682016
    },
    "xncvWfGMo8N816bqGeH6FJ": {
        "name": "고운약국",
        "address": "(63199) 제주특별자치도 제주시 서광로 273 고운약국",
        "tel": "064-723-1339",
        "run_time": "09:00 ~ 19:00",
        "id": "xncvWfGMo8N816bqGeH6FJ",
        "lng": 126.525662002453,
        "lat": 33.5004176607745
    },
    "e1pM6kgQzLEh3Jx9ybgQrB": {
        "name": "힐링약국",
        "address": "(63207) 제주특별자치도 제주시 서광로 278 줌타워 101호",
        "tel": "064-702-2332",
        "run_time": "08:30 ~ 18:30",
        "id": "e1pM6kgQzLEh3Jx9ybgQrB",
        "lng": 126.526212033291,
        "lat": 33.4999816815601
    },
    "3PzV8gpVkxTgfLT319sBPT": {
        "name": "100세약국",
        "address": "(63207) 제주특별자치도 제주시 서광로 300-1 ",
        "tel": "064-702-0103",
        "run_time": "09:00 ~ 21:30",
        "id": "3PzV8gpVkxTgfLT319sBPT",
        "lng": 126.528633948144,
        "lat": 33.500391586513
    },
    "5bXi6JqTCxnUCXSqxTLC7u": {
        "name": "영신온누리약국",
        "address": "(63154) 제주특별자치도 제주시 서문로 68 영신온누리약국",
        "tel": "064-722-0371",
        "run_time": "08:30 ~ 20:00",
        "id": "5bXi6JqTCxnUCXSqxTLC7u",
        "lng": 126.518385714275,
        "lat": 33.5117397203378
    },
    "t6k318rfpQVfDCRgi4bepV": {
        "name": "건강한약국",
        "address": "(63186) 제주특별자치도 제주시 서사로 155 1층",
        "tel": "064-722-2004",
        "run_time": "08:00 ~ 20:00",
        "id": "t6k318rfpQVfDCRgi4bepV",
        "lng": 126.520043633981,
        "lat": 33.4984631916553
    },
    "8PemQ1xe2eV5YPHFAn5dSE": {
        "name": "새우리약국",
        "address": "(63172) 제주특별자치도 제주시 서사로 36 새우리약국",
        "tel": "064-757-7675",
        "run_time": "09:00 ~ 23:00",
        "id": "8PemQ1xe2eV5YPHFAn5dSE",
        "lng": 126.519651446053,
        "lat": 33.509244975192
    },
    "qGf21CX1Wo9hF2dVL1V8bS": {
        "name": "365약국",
        "address": "(63113) 제주특별자치도 제주시 서해안로 161 ",
        "tel": "0647113652",
        "run_time": "08:00 ~ 20:00",
        "id": "qGf21CX1Wo9hF2dVL1V8bS",
        "lng": 126.466051763303,
        "lat": 33.5040159739566
    },
    "3p4jmygwusMCCxJfKeDm5v": {
        "name": "한라산약국",
        "address": "(63127) 제주특별자치도 제주시 성신로 13-4 한라산약국",
        "tel": "010-9066-5864",
        "run_time": "09:00 ~ 18:00",
        "id": "3p4jmygwusMCCxJfKeDm5v",
        "lng": 126.485210416351,
        "lat": 33.4909836070888
    },
    "m5ohShpJ4JZxzajH2FutDK": {
        "name": "신제주대웅약국",
        "address": "(63127) 제주특별자치도 제주시 성신로 13-8 신제주대웅약국",
        "tel": "064-747-8811",
        "run_time": "08:30 ~ 18:30",
        "id": "m5ohShpJ4JZxzajH2FutDK",
        "lng": 126.484844218554,
        "lat": 33.490914736412
    },
    "vaX6mPPYRbBqKLA6XZNjw6": {
        "name": "제주약국",
        "address": "(63127) 제주특별자치도 제주시 성신로 13-8 103호",
        "tel": "064-713-8575",
        "run_time": "09:00 ~ 18:30",
        "id": "vaX6mPPYRbBqKLA6XZNjw6",
        "lng": 126.484844218554,
        "lat": 33.490914736412
    },
    "2bVBK6BRVmzJb8A38pCR8V": {
        "name": "정약국",
        "address": "(63099) 제주특별자치도 제주시 수덕1길 3 ",
        "tel": "064-713-0033",
        "run_time": "08:00 ~ 18:30",
        "id": "2bVBK6BRVmzJb8A38pCR8V",
        "lng": 126.478276246833,
        "lat": 33.4862425301571
    },
    "f9GbG7F5ghJh7Nddd3FFhA": {
        "name": "밝은사랑약국",
        "address": "(63102) 제주특별자치도 제주시 수덕로 41 1층",
        "tel": "0647127965",
        "run_time": "09:00 ~ 18:00",
        "id": "f9GbG7F5ghJh7Nddd3FFhA",
        "lng": 126.472784599759,
        "lat": 33.4861483341127
    },
    "c8gENs5xb6woXGTHUcedt8": {
        "name": "하늘약국",
        "address": "(63100) 제주특별자치도 제주시 수덕로 6 ",
        "tel": "064-748-4001",
        "run_time": "09:00 ~ 18:00",
        "id": "c8gENs5xb6woXGTHUcedt8",
        "lng": 126.475307220929,
        "lat": 33.4886649230919
    },
    "9AwbJ41JD87pXnaq6vCi31": {
        "name": "새순약국",
        "address": "(63103) 제주특별자치도 제주시 수덕로 69 새순약국",
        "tel": "064-713-5177",
        "run_time": "09:00 ~ 19:00",
        "id": "9AwbJ41JD87pXnaq6vCi31",
        "lng": 126.470607092953,
        "lat": 33.4844241345135
    },
    "b8U4Cwvn7QkCuJRuDSaF4S": {
        "name": "오케이약국",
        "address": "(63231) 제주특별자치도 제주시 승천로 74 ",
        "tel": "064-723-6690",
        "run_time": "08:30 ~ 19:00",
        "id": "b8U4Cwvn7QkCuJRuDSaF4S",
        "lng": 126.542579496739,
        "lat": 33.4921926501796
    },
    "7mwD4iTgWugShaiHkeGiK6": {
        "name": "에코약국",
        "address": "(63227) 제주특별자치도 제주시 승천로 75 ",
        "tel": "064-722-0059",
        "run_time": "09:00 ~ 20:00",
        "id": "7mwD4iTgWugShaiHkeGiK6",
        "lng": 126.543176897454,
        "lat": 33.4922384009257
    },
    "rPfjoejVSoNZaZn5cK672Q": {
        "name": "새한온누리약국",
        "address": "(63123) 제주특별자치도 제주시 신대로 128 새한온누리약국",
        "tel": "064-742-1348",
        "run_time": "09:00 ~ 22:00",
        "id": "rPfjoejVSoNZaZn5cK672Q",
        "lng": 126.496059583157,
        "lat": 33.4858517995196
    },
    "f24U7xXKwgx12iv4xBUGw1": {
        "name": "한결약국",
        "address": "(63205) 제주특별자치도 제주시 신성로 78 1층",
        "tel": "064-727-1210",
        "run_time": "08:30 ~ 21:00",
        "id": "f24U7xXKwgx12iv4xBUGw1",
        "lng": 126.527805588365,
        "lat": 33.4954440983053
    },
    "6ydZKrDXSQjMpSTmthokLA": {
        "name": "아라약국",
        "address": "(63043) 제주특별자치도 제주시 애월읍 애월로 120 아라약국",
        "tel": "064-799-4460",
        "run_time": "08:30 ~ 21:00",
        "id": "6ydZKrDXSQjMpSTmthokLA",
        "lng": 126.319970894671,
        "lat": 33.4643785619656
    },
    "pkfhqhxhqRz5hxuWcJjrxK": {
        "name": "하귀하나로약국",
        "address": "(63054) 제주특별자치도 제주시 애월읍 일주서로 7136 하귀하나로약국",
        "tel": "064-742-8434",
        "run_time": "08:30 ~ 20:00",
        "id": "pkfhqhxhqRz5hxuWcJjrxK",
        "lng": 126.412159214346,
        "lat": 33.4850611892862
    },
    "ja4FwfWcccJAVTeuGy9FE7": {
        "name": "동백약국",
        "address": "(63054) 제주특별자치도 제주시 애월읍 하귀9길 1 103호",
        "tel": "064-904-1102",
        "run_time": "08:30 ~ 19:00",
        "id": "ja4FwfWcccJAVTeuGy9FE7",
        "lng": 126.414969308735,
        "lat": 33.4867393589107
    },
    "wQcWRYy6gZvYeeiQ6EuPv1": {
        "name": "곰온누리약국",
        "address": "(63054) 제주특별자치도 제주시 애월읍 하귀9길 2 모닝시티 106호",
        "tel": "064-747-6174",
        "run_time": "09:00 ~ 18:00",
        "id": "wQcWRYy6gZvYeeiQ6EuPv1",
        "lng": 126.414565502113,
        "lat": 33.4864182898895
    },
    "qP8AYDZaoBBemNniJWaVu7": {
        "name": "하귀약국",
        "address": "(63051) 제주특별자치도 제주시 애월읍 하귀로 35 하귀약국",
        "tel": "064-713-2927",
        "run_time": "08:30 ~ 19:00",
        "id": "qP8AYDZaoBBemNniJWaVu7",
        "lng": 126.40098470745,
        "lat": 33.4803467441823
    },
    "8brjkomZuDPyqGVkTKPFHF": {
        "name": "송약국",
        "address": "(63051) 제주특별자치도 제주시 애월읍 하귀로 77 송약국",
        "tel": "064-712-8538",
        "run_time": "08:00 ~ 21:30",
        "id": "8brjkomZuDPyqGVkTKPFHF",
        "lng": 126.405012921092,
        "lat": 33.4817561259736
    },
    "q3fiNRJD54NpPNHiAdcLQp": {
        "name": "제주예스약국",
        "address": "(63094) 제주특별자치도 제주시 억삼길 35-57 제주예스약국",
        "tel": "064-744-5551",
        "run_time": "09:00 ~ 22:00",
        "id": "q3fiNRJD54NpPNHiAdcLQp",
        "lng": 126.471259738003,
        "lat": 33.4917415285373
    },
    "jdEzVYBLtL2QWtpRigBuJj": {
        "name": "신세계약국",
        "address": "(63133) 제주특별자치도 제주시 연동8길 7 신세계약국",
        "tel": "064-746-3983",
        "run_time": "09:00 ~ 22:00",
        "id": "jdEzVYBLtL2QWtpRigBuJj",
        "lng": 126.490807609442,
        "lat": 33.4851414250848
    },
    "vDAwpC8YVt7foybvHT7RGt": {
        "name": "뉴제주약국",
        "address": "(63133) 제주특별자치도 제주시 연동8길 8 뉴제주약국",
        "tel": "064-752-5244",
        "run_time": "08:30 ~ 19:30",
        "id": "vDAwpC8YVt7foybvHT7RGt",
        "lng": 126.490514238975,
        "lat": 33.4851337279057
    },
    "76kzYairwTEPhzwWyPLFWe": {
        "name": "스마트약국",
        "address": "(63084) 제주특별자치도 제주시 연북로 1 1층 (노형동,롯데마트)",
        "tel": "064-712-6706",
        "run_time": "10:00 ~ 21:30",
        "id": "76kzYairwTEPhzwWyPLFWe",
        "lng": 126.481834000763,
        "lat": 33.4824421892687
    },
    "vVH7CHhk2ARr3CGu6cvBkB": {
        "name": "신진팜약국",
        "address": "(63085) 제주특별자치도 제주시 연북로 34 1층 신진팜약국",
        "tel": "064-746-5452",
        "run_time": "08:30 ~ 09:00",
        "id": "vVH7CHhk2ARr3CGu6cvBkB",
        "lng": 126.484952001108,
        "lat": 33.4816683662675
    },
    "q3zCGCPYunMqPuSAqZpjq2": {
        "name": "굿모닝약국",
        "address": "(63085) 제주특별자치도 제주시 연북로 40 굿모닝약국",
        "tel": "064-711-8995",
        "run_time": "09:00 ~ 19:00",
        "id": "q3zCGCPYunMqPuSAqZpjq2",
        "lng": 126.485625199268,
        "lat": 33.4816329345296
    },
    "vxajYjcKmXW1YA9KWUnciJ": {
        "name": "해모로약국",
        "address": "(63204) 제주특별자치도 제주시 연삼로 305 해모로약국",
        "tel": "064-901-7378",
        "run_time": "10:00 ~ 20:00",
        "id": "vxajYjcKmXW1YA9KWUnciJ",
        "lng": 126.525167130007,
        "lat": 33.4923853689194
    },
    "c16qcobLWWka6jXRtFPmvo": {
        "name": "최약국",
        "address": "(63260) 제주특별자치도 제주시 연삼로 548 1층 최약국",
        "tel": "064-755-3566",
        "run_time": "08:30 ~ 19:00",
        "id": "c16qcobLWWka6jXRtFPmvo",
        "lng": 126.547453553136,
        "lat": 33.5023973829354
    },
    "tRtDj7JGF9RTMP5hehMWU5": {
        "name": "영주약국",
        "address": "(63227) 제주특별자치도 제주시 연신로 46 ",
        "tel": "064-722-5593",
        "run_time": "09:00 ~ 19:00",
        "id": "tRtDj7JGF9RTMP5hehMWU5",
        "lng": 126.546270581436,
        "lat": 33.4969993645896
    },
    "aVLRdVZFNvcYPcmcKnqGQ7": {
        "name": "한우리약국",
        "address": "(63228) 제주특별자치도 제주시 연신로 51 한우리약국",
        "tel": "064-723-8484",
        "run_time": "08:30 ~ 19:00",
        "id": "aVLRdVZFNvcYPcmcKnqGQ7",
        "lng": 126.54690529802,
        "lat": 33.4968501292395
    },
    "vV3M6gV5RZoMdq6BoERa85": {
        "name": "맘꽃약국",
        "address": "(63145) 제주특별자치도 제주시 연오로 59 이룸프라자 204호 맘꽃약국",
        "tel": "064-747-2966",
        "run_time": "08:30 ~ 20:30",
        "id": "vV3M6gV5RZoMdq6BoERa85",
        "lng": 126.502057860304,
        "lat": 33.4879308657759
    },
    "oZhwNjpfQeNEHyh9xNLMZf": {
        "name": "동보약국",
        "address": "(63192) 제주특별자치도 제주시 오현길 78 동보약국",
        "tel": "064-757-5833",
        "run_time": "07:00 ~ 20:00",
        "id": "oZhwNjpfQeNEHyh9xNLMZf",
        "lng": 126.525549123259,
        "lat": 33.5117368883857
    },
    "7KNmzpfea21enN3YfnLH53": {
        "name": "용담온누리약국",
        "address": "(63157) 제주특별자치도 제주시 용담로 46 용담온누리약국",
        "tel": "064-712-0259",
        "run_time": "08:30 ~ 19:00",
        "id": "7KNmzpfea21enN3YfnLH53",
        "lng": 126.507652346153,
        "lat": 33.5127685258347
    },
    "uG1YpZmHBQk2BsKCLaU9ep": {
        "name": "우주약국",
        "address": "(63156) 제주특별자치도 제주시 용담로 92 1층 우주약국",
        "tel": "070-4111-6964",
        "run_time": "08:30 ~ 19:30",
        "id": "uG1YpZmHBQk2BsKCLaU9ep",
        "lng": 126.512347253755,
        "lat": 33.5119148080676
    },
    "nYqBaVgyD4p7Fr7JC3tNbD": {
        "name": "무등약국",
        "address": "(63184) 제주특별자치도 제주시 용담일동 2824-15 1층 무등약국",
        "tel": "064-722-5529",
        "run_time": "08:30 ~ 18:30",
        "id": "nYqBaVgyD4p7Fr7JC3tNbD",
        "lng": 126.513120207898,
        "lat": 33.5012173198257
    },
    "1PLufJaL9SgoJAT7zHyVHy": {
        "name": "유명약국",
        "address": "(63156) 제주특별자치도 제주시 용문로 163 유명약국",
        "tel": "064-711-4587",
        "run_time": "09:00 ~ 18:30",
        "id": "1PLufJaL9SgoJAT7zHyVHy",
        "lng": 126.51081189938,
        "lat": 33.5092782759611
    },
    "qx6Rr1MG6mXCMp2kNGUqAo": {
        "name": "가정온누리약국",
        "address": "(63070) 제주특별자치도 제주시 우정로 57 가정온누리약국",
        "tel": "064-711-5275",
        "run_time": "08:30 ~ 21:00",
        "id": "qx6Rr1MG6mXCMp2kNGUqAo",
        "lng": 126.43111337908,
        "lat": 33.4876991586953
    },
    "oygEHXgXYdxneEw3rNohjK": {
        "name": "알로하약국",
        "address": "(63070) 제주특별자치도 제주시 우정로15길 1 106호 알로하약국",
        "tel": "064-723-9090",
        "run_time": "09:00 ~ 20:30",
        "id": "oygEHXgXYdxneEw3rNohjK",
        "lng": 126.431233598343,
        "lat": 33.4861306755197
    },
    "kk24HJfKKzA7FVSQBsFwyZ": {
        "name": "착한약국",
        "address": "(63070) 제주특별자치도 제주시 우정로15길 5 102호",
        "tel": "064-744-6314",
        "run_time": "08:00 ~ 18:30",
        "id": "kk24HJfKKzA7FVSQBsFwyZ",
        "lng": 126.431727067918,
        "lat": 33.4860933595521
    },
    "wvLjhkwcESXRxbABhKQDmk": {
        "name": "우리들약국",
        "address": "(63070) 제주특별자치도 제주시 우정로5길 5 우리들약국",
        "tel": "064-712-6543",
        "run_time": "08:00 ~ 19:30",
        "id": "wvLjhkwcESXRxbABhKQDmk",
        "lng": 126.431685213822,
        "lat": 33.4904255714914
    },
    "miWt663s6avmrMuh24ohaC": {
        "name": "부원약국",
        "address": "(63069) 제주특별자치도 제주시 우정로8길 2 1층 부원약국",
        "tel": "064-900-4338",
        "run_time": "08:30 ~ 19:00",
        "id": "miWt663s6avmrMuh24ohaC",
        "lng": 126.430679405636,
        "lat": 33.4893639324779
    },
    "iG2ZauohgCAzsX8CEzKCKk": {
        "name": "큰곰약국",
        "address": "(63069) 제주특별자치도 제주시 우평로 338 1층 큰곰약국",
        "tel": "064-746-1133",
        "run_time": "09:00 ~ 13:00",
        "id": "iG2ZauohgCAzsX8CEzKCKk",
        "lng": 126.430534621471,
        "lat": 33.4841944587667
    },
    "oT1M6RxR4qD4YbLMAY3X66": {
        "name": "생생약국",
        "address": "(63082) 제주특별자치도 제주시 원노형남1길 1 1층",
        "tel": "064-711-1788",
        "run_time": "09:00 ~ 21:00",
        "id": "oT1M6RxR4qD4YbLMAY3X66",
        "lng": 126.480730767311,
        "lat": 33.484006612815
    },
    "5v83uRSnPhPJjvtViEwpgR": {
        "name": "메디팜월랑약국",
        "address": "(63100) 제주특별자치도 제주시 월랑로 39 동마빌딩1층 메디팜월랑약국",
        "tel": "064-742-9770",
        "run_time": "08:30 ~ 20:30",
        "id": "5v83uRSnPhPJjvtViEwpgR",
        "lng": 126.475614662141,
        "lat": 33.4889462586235
    },
    "t48bQAn8j8rZzEHwSQ2FPe": {
        "name": "세원약국",
        "address": "(63099) 제주특별자치도 제주시 월랑로 5 세원약국",
        "tel": "064-742-9090",
        "run_time": "08:30 ~ 21:00",
        "id": "t48bQAn8j8rZzEHwSQ2FPe",
        "lng": 126.478263449417,
        "lat": 33.4866900263728
    },
    "oQXvDWKvaiH2uKzXo3qpCH": {
        "name": "행복나눔약국",
        "address": "(63100) 제주특별자치도 제주시 월랑로 59 세흔빌딩 1층",
        "tel": "064-747-7227",
        "run_time": "08:30 ~ 20:00",
        "id": "oQXvDWKvaiH2uKzXo3qpCH",
        "lng": 126.474199468505,
        "lat": 33.4902322419752
    },
    "hccTxMgA28N3j4fUZs4GMJ": {
        "name": "신산약국",
        "address": "(63268) 제주특별자치도 제주시 일도이동 1027-5 신산약국",
        "tel": "064-722-7290",
        "run_time": "08:30 ~ 19:00",
        "id": "hccTxMgA28N3j4fUZs4GMJ",
        "lng": 126.531367689696,
        "lat": 33.5115367937515
    },
    "n2yVF7yosA1arB5V7zHis5": {
        "name": "온누리한솔약국",
        "address": "(63292) 제주특별자치도 제주시 일주동로 181 온누리한솔약국",
        "tel": "064-725-0270",
        "run_time": "09:00 ~ 18:30",
        "id": "n2yVF7yosA1arB5V7zHis5",
        "lng": 126.564818561283,
        "lat": 33.5190270774341
    },
    "orkGUUSkFoECoLH8LwJSEG": {
        "name": "화북약국",
        "address": "(63289) 제주특별자치도 제주시 일주동로 199 화북약국",
        "tel": "064-756-1428",
        "run_time": "08:30 ~ 21:00",
        "id": "orkGUUSkFoECoLH8LwJSEG",
        "lng": 126.566846605617,
        "lat": 33.5190229158855
    },
    "jqqxH9nV8uBwEfD1nbpSkh": {
        "name": "월마트약국",
        "address": "(63288) 제주특별자치도 제주시 일주동로 229 1층 월마트약국",
        "tel": "064-723-4947",
        "run_time": "09:00 ~ 20:00",
        "id": "jqqxH9nV8uBwEfD1nbpSkh",
        "lng": 126.569947757174,
        "lat": 33.5194425930885
    },
    "i8SWWuXdfP9AkacYssDzLY": {
        "name": "동화약국",
        "address": "(63288) 제주특별자치도 제주시 일주동로 241 동화약국",
        "tel": "064-723-6462",
        "run_time": "09:00 ~ 18:00",
        "id": "i8SWWuXdfP9AkacYssDzLY",
        "lng": 126.570960870211,
        "lat": 33.5198327989352
    },
    "e6mkdjx1ewACnhWtp8DQAJ": {
        "name": "삼양약국",
        "address": "(63321) 제주특별자치도 제주시 일주동로 366 1층",
        "tel": "064-758-1734",
        "run_time": "08:30 ~ 18:30",
        "id": "e6mkdjx1ewACnhWtp8DQAJ",
        "lng": 126.584080157623,
        "lat": 33.5208841725461
    },
    "nXLnQbvemw88AZfhfyARzf": {
        "name": "삼화약국",
        "address": "(63321) 제주특별자치도 제주시 일주동로 366 ",
        "tel": "064-758-1734",
        "run_time": "08:30 ~ 20:00",
        "id": "nXLnQbvemw88AZfhfyARzf",
        "lng": 126.584080157623,
        "lat": 33.5208841725461
    },
    "vY2YfEq1bpqKEZ5F6nJy3s": {
        "name": "삼양온누리약국",
        "address": "(63318) 제주특별자치도 제주시 일주동로 393 1층",
        "tel": "070-8900-4480",
        "run_time": "09:00 ~ 20:00",
        "id": "vY2YfEq1bpqKEZ5F6nJy3s",
        "lng": 126.58696097496,
        "lat": 33.521537909651
    },
    "72DHoUVmGbtrwqofrKPTGm": {
        "name": "한사랑약국",
        "address": "(63331) 제주특별자치도 제주시 조천읍 신북로 217 ",
        "tel": "064-784-3336",
        "run_time": "09:00 ~ 19:00",
        "id": "72DHoUVmGbtrwqofrKPTGm",
        "lng": 126.636033867269,
        "lat": 33.5357738080624
    },
    "6KdZnvK4aNpLnKdanFHo1q": {
        "name": "조천약국",
        "address": "(63331) 제주특별자치도 제주시 조천읍 신북로 226 조천약국",
        "tel": "064-783-8989",
        "run_time": "08:30 ~ 21:00",
        "id": "6KdZnvK4aNpLnKdanFHo1q",
        "lng": 126.637179387123,
        "lat": 33.5360014855524
    },
    "vbikeR5G3ijFiTxRnKWnTw": {
        "name": "영재약국",
        "address": "(63333) 제주특별자치도 제주시 조천읍 신북로 510-1 영재약국",
        "tel": "064-783-1959",
        "run_time": "08:30 ~ 23:00",
        "id": "vbikeR5G3ijFiTxRnKWnTw",
        "lng": 126.664236789984,
        "lat": 33.5421838373358
    },
    "eLnzdS9S9Z1BPSc26Kq6vy": {
        "name": "나라약국",
        "address": "(63333) 제주특별자치도 제주시 조천읍 신북로 523 나라약국",
        "tel": "064-782-3700",
        "run_time": "08:00 ~ 18:30",
        "id": "eLnzdS9S9Z1BPSc26Kq6vy",
        "lng": 126.665971016422,
        "lat": 33.5420394042026
    },
    "cyjfQ5TP3MYxYGpjpJFpwf": {
        "name": "옵티마대한약국",
        "address": "(63333) 제주특별자치도 제주시 조천읍 조함해안로 488-6 옵티마대한약국",
        "tel": "064-784-3432",
        "run_time": "09:00 ~ 18:30",
        "id": "cyjfQ5TP3MYxYGpjpJFpwf",
        "lng": 126.664635344258,
        "lat": 33.542303837388
    },
    "aJn93t9TUC8N7HhLBjck7M": {
        "name": "함덕하나로약국",
        "address": "(63334) 제주특별자치도 제주시 조천읍 함와로 40 함덕하나로약국",
        "tel": "064-784-8434",
        "run_time": "08:00 ~ 19:00",
        "id": "aJn93t9TUC8N7HhLBjck7M",
        "lng": 126.674912222026,
        "lat": 33.5365660075389
    },
    "2L2tgXFAKxWDjgVQnFrL4s": {
        "name": "남문약국",
        "address": "(63170) 제주특별자치도 제주시 중앙로 132 1층 남문약국",
        "tel": "064-751-9967",
        "run_time": "08:30 ~ 20:30",
        "id": "2L2tgXFAKxWDjgVQnFrL4s",
        "lng": 126.524698216331,
        "lat": 33.5068721586305
    },
    "7Gxxe6mt4TqfsuDtJmm6f9": {
        "name": "연세익약국",
        "address": "(63197) 제주특별자치도 제주시 중앙로 175 ",
        "tel": "064-725-9454",
        "run_time": "08:30 ~ 22:00",
        "id": "7Gxxe6mt4TqfsuDtJmm6f9",
        "lng": 126.527366850279,
        "lat": 33.503565682999
    },
    "rFRwevX913q5c8xSPhijSQ": {
        "name": "웅진약국",
        "address": "(63197) 제주특별자치도 제주시 중앙로 195 웅진약국",
        "tel": "064-723-7677",
        "run_time": "09:00 ~ 18:00",
        "id": "rFRwevX913q5c8xSPhijSQ",
        "lng": 126.528438943589,
        "lat": 33.502000096441
    },
    "gTAzEWgTWTBeGN68vw73dM": {
        "name": "늘좋은약국",
        "address": "(63206) 제주특별자치도 제주시 중앙로 284 늘좋은약국",
        "tel": "064-751-2277",
        "run_time": "08:00 ~ 20:00",
        "id": "gTAzEWgTWTBeGN68vw73dM",
        "lng": 126.533002564798,
        "lat": 33.4950673629048
    },
    "6yeG74S1aUZNYKxBnMUVaa": {
        "name": "주원약국",
        "address": "(63222) 제주특별자치도 제주시 중앙로 318 주원약국",
        "tel": "064-752-2321",
        "run_time": "08:30 ~ 21:00",
        "id": "6yeG74S1aUZNYKxBnMUVaa",
        "lng": 126.535272367644,
        "lat": 33.4926491670383
    },
    "2hiAgLrvNV6dEWaco1BFiy": {
        "name": "베스트약국",
        "address": "(63232) 제주특별자치도 제주시 중앙로 354 은빌딩1층",
        "tel": "064-752-7525",
        "run_time": "08:30 ~ 19:00",
        "id": "2hiAgLrvNV6dEWaco1BFiy",
        "lng": 126.537715735683,
        "lat": 33.4900853370456
    }
}